network,station,latitude,longitude,start_year,end_year,smap_lat,smap_lon,chirps25_lat,chirps25_lon,chirps05_lat,chirps05_lon,MAP,location,MEAN_PET,AI,era5_lat,era5_lon,MAT,LAI_max,LAI_mean
AACES,Farm01,-34.77682,143.66369,2010,2010,-34.64869,143.58922,-34.875,143.625,-34.775,143.67499,326.1188659667969,"('AACES', 'Farm01')",1348.878173828125,0.2417704373118214,-34.75,143.75,16.765625,1.680000016,0.531602039912753
AACES,Farm02,-34.77832,143.89634,2010,2010,-34.64869,143.96266,-34.875,143.875,-34.775,143.875,327.4534606933594,"('AACES', 'Farm02')",1331.327392578125,0.2459601316091329,-34.75,143.75,16.765625,0.748000012,0.3665181957737509
AACES,Farm03,-34.65276,144.31351,2010,2010,-34.64869,144.3361,-34.625,144.375,-34.675,144.32501,336.08074951171875,"('AACES', 'Farm03')",1412.1258544921875,0.2379963148770307,-34.75,144.25,16.867554,1.8960000160000001,0.5709689544211243
AACES,Farm04,-34.74041,144.43211,2005,2010,-34.64869,144.3361,-34.625,144.375,-34.725,144.42499,338.94635009765625,"('AACES', 'Farm04')",1366.080810546875,0.2481158855909614,-34.75,144.25,16.867554,0.9360000039999999,0.3864347428637276
AACES,Farm06,-35.03008,144.7957,2005,2010,-34.991234,144.70955,-35.125,144.875,-35.025,144.775,365.171630859375,"('AACES', 'Farm06')",1378.3438720703125,0.2649350704558773,-35.25,144.75,16.599365,0.972000004,0.4336582925012871
AACES,Farm07,-34.67459,145.47188,2005,2010,-34.64869,145.45644,-34.625,145.375,-34.675,145.475,368.9656372070313,"('AACES', 'Farm07')",1370.3543701171875,0.2692483384246651,-34.75,145.25,16.954681,2.300000028,0.6638630493074896
AACES,Farm08,-34.95988,145.41483,2010,2010,-34.991234,145.45644,-34.875,145.375,-34.975,145.42499,385.5696411132813,"('AACES', 'Farm08')",1360.7247314453125,0.2833560912086482,-34.75,145.25,16.954681,2.000000012,0.625914695156238
AACES,Farm09,-34.65475,146.07833,2010,2010,-34.64869,146.20332,-34.625,146.125,-34.675,146.07501,407.7763977050781,"('AACES', 'Farm09')",1361.1341552734375,0.299585750695647,-34.75,146.25,16.869324,1.4240000119999998,0.5661869984802338
AACES,Farm10,-34.95354,145.99335,2005,2010,-34.991234,145.82988,-34.875,145.875,-34.975,145.975,416.4464416503906,"('AACES', 'Farm10')",1352.5572509765625,0.3078956113315804,-34.75,145.75,16.94577,2.788000036,0.8494041818585454
AACES,Farm11,-34.90187,146.58227,2010,2010,-34.991234,146.57677,-34.875,146.625,-34.925,146.57501,465.6982116699219,"('AACES', 'Farm11')",1335.670654296875,0.3486624567005069,-34.75,146.75,16.657074,3.57200006,0.8492314512939394
AACES,Farm12,-35.04783,146.72063,2010,2010,-34.991234,146.57677,-35.125,146.625,-35.025,146.725,481.1323547363281,"('AACES', 'Farm12')",1318.3875732421875,0.3649399952649161,-35.25,146.75,16.27237,4.732000104,0.9584838626666802
AACES,Farm13,-34.78724,147.13559,2005,2010,-34.64869,146.95021,-34.875,147.125,-34.775,147.125,499.0164489746094,"('AACES', 'Farm13')",1299.31103515625,0.3840623495625123,-34.75,147.25,16.103577,3.844000064,0.8732297780131246
AACES,Farm14,-35.17825,147.11081,2010,2010,-35.335194,146.95021,-35.125,147.125,-35.175,147.125,558.1931762695312,"('AACES', 'Farm14')",1239.6776123046875,0.4502728537880046,-35.25,147.25,15.595245,4.61600008,1.0475222468441505
AACES,Farm15,-34.97633,147.85572,2010,2010,-34.991234,147.6971,-34.875,147.875,-34.975,147.875,618.2698974609375,"('AACES', 'Farm15')",1118.0882568359375,0.5529705671094077,-34.75,147.75,15.319244,4.448000048,1.1801445336985474
AACES,Farm16,-35.23922,148.05849,2005,2010,-35.335194,148.07054,-35.125,148.125,-35.225,148.07501,785.3168334960938,"('AACES', 'Farm16')",1046.052734375,0.7507430626480874,-35.25,148.25,13.23996,5.292000091999999,1.732138061577565
AACES,Farm17,-34.89206,148.37039,2005,2010,-34.991234,148.44398,-34.875,148.375,-34.875,148.375,700.0402221679688,"('AACES', 'Farm17')",1065.54150390625,0.6569807178806624,-34.75,148.25,14.57901,5.272000096,1.5561742541148271
AACES,Farm18,-35.16828,148.2887,2010,2010,-35.335194,148.44398,-35.125,148.375,-35.175,148.275,785.4747314453125,"('AACES', 'Farm18')",1019.1549682617188,0.7707117719153411,-35.25,148.25,13.23996,5.476000124,1.718862315543583
AACES,Farm19,-35.07023,149.00049,2010,2010,-34.991234,148.81743,-35.125,149.125,-35.075,149.025,680.9091796875,"('AACES', 'Farm19')",977.1852416992188,0.696806655106122,-35.25,149.25,12.611328,4.556000068,1.4227516981621906
AACES,Farm20,-35.06349,149.13493,2005,2010,-34.991234,149.19087,-35.125,149.125,-35.075,149.125,659.5278930664062,"('AACES', 'Farm20')",984.999755859375,0.6695716310010587,-35.25,149.25,12.611328,1.640000016,0.7659756935570757
AACES,Station01,-34.76381,143.67131,2010,2010,-34.64869,143.58922,-34.875,143.625,-34.775,143.67499,326.1188659667969,"('AACES', 'Station01')",1348.878173828125,0.2417704373118214,-34.75,143.75,16.765625,1.3920000200000002,0.4913360112201547
AACES,Station02,-34.79636,143.66825,2010,2010,-34.64869,143.58922,-34.875,143.625,-34.775,143.67499,326.1188659667969,"('AACES', 'Station02')",1348.878173828125,0.2417704373118214,-34.75,143.75,16.765625,1.028000004,0.4900038484652005
AACES,Station05,-34.6494,144.312,2010,2010,-34.64869,144.3361,-34.625,144.375,-34.625,144.32501,337.13970947265625,"('AACES', 'Station05')",1427.025390625,0.2362534764185224,-34.75,144.25,16.867554,1.54000002,0.52682122491929
AACES,Station06,-34.6628,144.3125,2010,2010,-34.64869,144.3361,-34.625,144.375,-34.675,144.32501,336.08074951171875,"('AACES', 'Station06')",1412.1258544921875,0.2379963148770307,-34.75,144.25,16.867554,1.860000008,0.5539209549856863
AACES,Station07,-34.7347,144.43434,2010,2010,-34.64869,144.3361,-34.625,144.375,-34.725,144.42499,338.94635009765625,"('AACES', 'Station07')",1366.080810546875,0.2481158855909614,-34.75,144.25,16.867554,0.82,0.3781714944690788
AACES,Station08,-34.7556,144.43474,2010,2010,-34.64869,144.3361,-34.875,144.375,-34.775,144.42499,343.1446228027344,"('AACES', 'Station08')",1335.9766845703125,0.2568492599952066,-34.75,144.25,16.867554,1.0560000120000002,0.41406528956577143
AACES,Station09,-34.6274,144.78933,2010,2010,-34.64869,144.70955,-34.625,144.875,-34.625,144.775,360.4107360839844,"('AACES', 'Station09')",1374.02294921875,0.2623032870658447,-34.75,144.75,17.057343,1.152000012,0.4729227878764096
AACES,Station10,-34.6469,144.79397,2010,2010,-34.64869,144.70955,-34.625,144.875,-34.625,144.775,360.4107360839844,"('AACES', 'Station10')",1374.02294921875,0.2623032870658447,-34.75,144.75,17.057343,0.964000004,0.41995369501649604
AACES,Station11,-35.02947,144.79295,2010,2010,-34.991234,144.70955,-35.125,144.875,-35.025,144.775,365.171630859375,"('AACES', 'Station11')",1378.3438720703125,0.2649350704558773,-35.25,144.75,16.599365,0.972000004,0.4336582925012871
AACES,Station12,-35.04097,144.78863,2010,2010,-34.991234,144.70955,-35.125,144.875,-35.025,144.775,365.171630859375,"('AACES', 'Station12')",1378.3438720703125,0.2649350704558773,-35.25,144.75,16.599365,1.228000004,0.5106800693960103
AACES,Station13,-34.66259,145.46862,2010,2010,-34.64869,145.45644,-34.625,145.375,-34.675,145.475,368.9656372070313,"('AACES', 'Station13')",1370.3543701171875,0.2692483384246651,-34.75,145.25,16.954681,2.348000036,0.6546005449222424
AACES,Station14,-34.67694,145.47247,2010,2010,-34.64869,145.45644,-34.625,145.375,-34.675,145.475,368.9656372070313,"('AACES', 'Station14')",1370.3543701171875,0.2692483384246651,-34.75,145.25,16.954681,1.696000024,0.5782896987872808
AACES,Station15,-34.9495,145.41083,2010,2010,-34.991234,145.45644,-34.875,145.375,-34.925,145.42499,388.5203857421875,"('AACES', 'Station15')",1370.334228515625,0.2835223536399882,-34.75,145.25,16.954681,1.88000002,0.6282027865708997
AACES,Station16,-34.9637,145.41532,2010,2010,-34.991234,145.45644,-34.875,145.375,-34.975,145.42499,385.5696411132813,"('AACES', 'Station16')",1360.7247314453125,0.2833560912086482,-34.75,145.25,16.954681,2.11600002,0.636949025249505
AACES,Station17,-34.64792,146.07817,2010,2010,-34.64869,146.20332,-34.625,146.125,-34.625,146.07501,411.7342529296875,"('AACES', 'Station17')",1410.268798828125,0.2919544510038239,-34.75,146.25,16.869324,1.552000032,0.5706257993157022
AACES,Station18,-34.6705,146.07925,2010,2010,-34.64869,146.20332,-34.625,146.125,-34.675,146.07501,407.7763977050781,"('AACES', 'Station18')",1361.1341552734375,0.299585750695647,-34.75,146.25,16.869324,1.860000028,0.7189239049342219
AACES,Station19,-34.93478,145.98958,2010,2010,-34.991234,145.82988,-34.875,145.875,-34.925,145.975,417.41357421875,"('AACES', 'Station19')",1359.206298828125,0.3071009710436406,-34.75,145.75,16.94577,2.28400004,0.6596424694310463
AACES,Station20,-34.96073,145.99936,2010,2010,-34.991234,145.82988,-34.875,145.875,-34.975,145.975,416.4464416503906,"('AACES', 'Station20')",1352.5572509765625,0.3078956113315804,-34.75,145.75,16.94577,3.0560000279999997,0.8666182012718692
AACES,Station25,-34.78043,147.1408,2010,2010,-34.64869,147.32365,-34.875,147.125,-34.775,147.125,499.0164489746094,"('AACES', 'Station25')",1299.31103515625,0.3840623495625123,-34.75,147.25,16.103577,3.7040000880000004,0.8910836424948313
AACES,Station26,-34.79623,147.14085,2010,2010,-34.64869,147.32365,-34.875,147.125,-34.775,147.125,499.0164489746094,"('AACES', 'Station26')",1299.31103515625,0.3840623495625123,-34.75,147.25,16.103577,3.456000028,0.9062388045517956
AACES,Station27,-35.171,147.105,2010,2010,-35.335194,146.95021,-35.125,147.125,-35.175,147.125,558.1931762695312,"('AACES', 'Station27')",1239.6776123046875,0.4502728537880046,-35.25,147.25,15.595245,4.72800004,1.0595573690643862
AACES,Station28,-35.185,147.119,2010,2010,-35.335194,146.95021,-35.125,147.125,-35.175,147.125,558.1931762695312,"('AACES', 'Station28')",1239.6776123046875,0.4502728537880046,-35.25,147.25,15.595245,4.89600006,1.116165352913253
AACES,Station29,-34.96287,147.85267,2010,2010,-34.991234,147.6971,-34.875,147.875,-34.975,147.875,618.2698974609375,"('AACES', 'Station29')",1118.0882568359375,0.5529705671094077,-34.75,147.75,15.319244,4.8280001,1.1261490820983446
AACES,Station30,-34.98263,147.85403,2010,2010,-34.991234,147.6971,-34.875,147.875,-34.975,147.875,618.2698974609375,"('AACES', 'Station30')",1118.0882568359375,0.5529705671094077,-34.75,147.75,15.319244,4.728000096,1.2390431375467685
AACES,Station31,-35.21873,148.06292,2010,2010,-35.335194,148.07054,-35.125,148.125,-35.225,148.07501,785.3168334960938,"('AACES', 'Station31')",1046.052734375,0.7507430626480874,-35.25,148.25,13.23996,4.944000084,1.5351277294719434
AACES,Station32,-35.24008,148.05672,2010,2010,-35.335194,148.07054,-35.125,148.125,-35.225,148.07501,785.3168334960938,"('AACES', 'Station32')",1046.052734375,0.7507430626480874,-35.25,148.25,13.23996,5.676000068,1.8367514587111686
AACES,Station34,-34.89562,148.37769,2010,2010,-34.991234,148.44398,-34.875,148.375,-34.875,148.375,700.0402221679688,"('AACES', 'Station34')",1065.54150390625,0.6569807178806624,-34.75,148.25,14.57901,5.272000096,1.5561742541148271
AACES,Station36,-35.17122,148.29327,2010,2010,-35.335194,148.44398,-35.125,148.375,-35.175,148.275,785.4747314453125,"('AACES', 'Station36')",1019.1549682617188,0.7707117719153411,-35.25,148.25,13.23996,5.66800012,1.7644468043211006
AACES,Station37,-35.06318,148.99915,2010,2010,-34.991234,148.81743,-35.125,148.875,-35.075,148.975,702.0174560546875,"('AACES', 'Station37')",977.1852416992188,0.7184077553545074,-35.25,148.75,11.591431,3.8320000640000003,1.2918203962032668
AACES,Station39,-35.04741,149.12515,2010,2010,-34.991234,149.19087,-35.125,149.125,-35.025,149.125,666.0083618164062,"('AACES', 'Station39')",1022.1770629882812,0.6515587034103129,-35.25,149.25,12.611328,2.108000032,0.909978992828972
AMMA-CATCH,Banizoumbou,13.5325,2.6604,2006,2018,13.538405,2.80083,13.625,2.625,13.524998,2.675003,468.84326171875,"('AMMA-CATCH', 'Banizoumbou')",2059.704833984375,0.22762643170177,13.75,2.75,29.210266,0.888,0.3659339346643694
AMMA-CATCH,Belefoungou-Mid,9.79506,1.70994,2006,2017,9.790613,1.6804979,9.875,1.625,9.774998,1.7249908,1245.2738037109375,"('AMMA-CATCH', 'Belefoungou-Mid')",1557.557373046875,0.7995042913089923,9.75,1.75,26.356506,3.2960000359999997,1.32875351276467
AMMA-CATCH,Belefoungou-Top,9.78986,1.70994,2006,2017,9.790613,1.6804979,9.875,1.625,9.774998,1.7249908,1245.2738037109375,"('AMMA-CATCH', 'Belefoungou-Top')",1557.557373046875,0.7995042913089923,9.75,1.75,26.356506,4.044000052,1.4373899974169657
AMMA-CATCH,Nalohou-Mid,9.7453,1.6053,2006,2017,9.790613,1.6804979,9.625,1.625,9.724998,1.625,1225.8585205078125,"('AMMA-CATCH', 'Nalohou-Mid')",1519.6253662109375,0.8066846920069459,9.75,1.75,26.356506,2.804000056,1.060675600725489
AMMA-CATCH,Nalohou-Top,9.74407,1.6058,2006,2017,9.790613,1.6804979,9.625,1.625,9.724998,1.625,1225.8585205078125,"('AMMA-CATCH', 'Nalohou-Top')",1519.6253662109375,0.8066846920069459,9.75,1.75,26.356506,2.804000056,1.060675600725489
AMMA-CATCH,Tondikiboro,13.548,2.6956,2006,2018,13.538405,2.80083,13.625,2.625,13.524998,2.675003,468.84326171875,"('AMMA-CATCH', 'Tondikiboro')",2059.704833984375,0.22762643170177,13.75,2.75,29.210266,0.74,0.283146319381102
AMMA-CATCH,Wankama,13.6456,2.632,2006,2018,13.538405,2.80083,13.625,2.625,13.624996,2.625,444.7874145507813,"('AMMA-CATCH', 'Wankama')",2073.861083984375,0.214473099469247,13.75,2.75,29.210266,0.764,0.2860279517583865
ARM,Anthony,37.2134,-98.0969,2011,2021,37.07728,-98.029045,37.125,-98.125,37.225,-98.075005,825.8815307617188,"('ARM', 'Anthony')",1279.9075927734375,0.6452665297282223,37.25,-98.25,14.231018,1.780000024,0.7020272853795952
ARM,Ashton,37.133,-97.266,1993,2023,37.07728,-97.28216,37.125,-97.375,37.125,-97.275,897.7216796875,"('ARM', 'Ashton')",1259.51025390625,0.7127545622620399,37.25,-97.25,14.456451,2.51200004,0.8567048575174115
ARM,Byron,36.881,-98.285,1995,2023,36.72578,-98.40249,36.875,-98.375,36.875,-98.275,812.5357055664062,"('ARM', 'Byron')",1309.644775390625,0.62042450047117,36.75,-98.25,15.126831,1.700000028,0.6976387746126853
ARM,Coldwater,37.333,-99.309,1996,2009,37.430386,-99.149376,37.375,-99.375,37.324997,-99.325005,653.8461303710938,"('ARM', 'Coldwater')",1337.9462890625,0.4886938554381314,37.25,-99.25,13.786835,1.5400000120000001,0.572939584702385
ARM,Cordell,35.354,-98.977,1996,2009,35.335194,-99.149376,35.375,-98.875,35.375,-98.975006,753.4078979492188,"('ARM', 'Cordell')",1425.3768310546875,0.5285675209072573,35.25,-98.75,15.854065,1.824000036,0.6819793413867842
ARM,Cyril,34.883,-98.205,1996,2009,34.991234,-98.029045,34.875,-98.125,34.875,-98.225006,866.4058227539062,"('ARM', 'Cyril')",1313.0526123046875,0.6598409040390081,34.75,-98.25,16.544495,2.2760000320000002,1.035056891532482
ARM,Earlsboro,35.269,-96.74,2003,2009,35.335194,-96.908714,35.375,-96.625,35.274994,-96.725006,1031.5311279296875,"('ARM', 'Earlsboro')",1209.67529296875,0.8527338980348468,35.25,-96.75,16.451385,2.232000032,0.9612553298169386
ARM,ElReno,35.557,-98.017,1997,2011,35.680595,-98.029045,35.625,-98.125,35.574997,-98.025,838.675048828125,"('ARM', 'ElReno')",1353.14892578125,0.619795081567914,35.75,-98.25,15.685974,2.304000052,0.7924419199022568
ARM,ElkFalls,37.383,-96.18,1995,2011,37.430386,-96.16183,37.375,-96.125,37.375,-96.175,999.597412109375,"('ARM', 'ElkFalls')",1146.065673828125,0.872199067589633,37.25,-96.25,14.2552185,3.824000064,1.224755427785541
ARM,Halstead,38.114,-97.513,1996,2009,38.14157,-97.6556,38.125,-97.625,38.125,-97.525,813.7952270507812,"('ARM', 'Halstead')",1192.58935546875,0.6823767320402732,38.25,-97.75,13.33786,2.996000044,0.8929663291067701
ARM,Hillsboro,38.306,-97.301,1996,2009,38.14157,-97.28216,38.375,-97.375,38.324997,-97.325005,817.5031127929688,"('ARM', 'Hillsboro')",1175.0306396484375,0.6957291879959496,38.25,-97.25,13.282623,2.184000032,0.8297340689028377
ARM,Lamont-CF1,36.605,-97.485,1996,2024,36.72578,-97.6556,36.625,-97.375,36.625,-97.475006,876.09130859375,"('ARM', 'Lamont-CF1')",1296.5479736328125,0.6757106766663017,36.75,-97.25,15.190063,2.05600002,0.819798180052853
ARM,Lamont-CF2,36.607,-97.488,2010,2024,36.72578,-97.6556,36.625,-97.375,36.625,-97.475006,876.09130859375,"('ARM', 'Lamont-CF2')",1296.5479736328125,0.6757106766663017,36.75,-97.25,15.190063,2.05600002,0.819798180052853
ARM,Larned,38.202,-99.316,1995,2009,38.14157,-99.149376,38.125,-99.375,38.225,-99.325005,634.3277587890625,"('ARM', 'Larned')",1284.6595458984375,0.4937711013118577,38.25,-99.25,12.924927,1.86000002,0.6864251711498937
ARM,LeRoy,38.201,-95.597,1996,2009,38.14157,-95.41494,38.125,-95.625,38.225,-95.575005,994.9017944335938,"('ARM', 'LeRoy')",1103.7132568359375,0.901413286713364,38.25,-95.75,13.343292,3.480000056,1.0027386505751361
ARM,MapleCity,37.0694,-97.7606,2016,2023,37.07728,-97.6556,37.125,-97.875,37.074997,-97.775,825.7841796875,"('ARM', 'MapleCity')",1291.4290771484375,0.6394344020121393,37.25,-97.75,14.355713,2.196000032,0.8494937044134692
ARM,Marshall,36.1166,-97.5112,2016,2023,36.027473,-97.6556,36.125,-97.625,36.125,-97.525,858.752197265625,"('ARM', 'Marshall')",1298.8408203125,0.6611681615142108,36.25,-97.75,15.625824,2.34800004,0.8625525712690754
ARM,Medford,36.819,-97.8199,2016,2024,36.72578,-97.6556,36.875,-97.875,36.824997,-97.825005,820.0845947265625,"('ARM', 'Medford')",1307.4725341796875,0.6272289270237605,36.75,-97.75,15.168976,1.828000024,0.7154243736305768
ARM,Meeker,35.564,-96.988,1993,2011,35.680595,-96.908714,35.625,-96.875,35.574997,-96.975006,995.8895263671876,"('ARM', 'Meeker')",1238.618896484375,0.8040322404202482,35.75,-96.75,16.175049,2.548000036,0.9782773918674132
ARM,Morris,35.688,-95.856,1996,2004,35.680595,-95.78838,35.625,-95.875,35.674995,-95.87501,1100.1175537109375,"('ARM', 'Morris')",1163.541748046875,0.9454904008022044,35.75,-95.75,16.41211,3.6600000599999998,1.1588350155944733
ARM,Morrison,36.37354,-97.06905,2015,2024,36.375854,-96.908714,36.375,-97.125,36.375,-97.075005,893.6801147460938,"('ARM', 'Morrison')",1261.0550537109375,0.7086765261486717,36.25,-97.25,15.714233,2.096000036,0.860941049092338
ARM,Newkirk,36.926,-97.082,2011,2024,37.07728,-96.908714,36.875,-97.125,36.924995,-97.075005,966.4642333984376,"('ARM', 'Newkirk')",1221.8973388671875,0.7909537099855213,36.75,-97.25,15.190063,2.5480000240000003,0.8996122695224587
ARM,Okmulgee,35.615,-96.065,1999,2014,35.680595,-96.16183,35.625,-96.125,35.625,-96.075005,1107.841552734375,"('ARM', 'Okmulgee')",1207.27392578125,0.9176389293900054,35.75,-96.25,16.255493,4.284000072,1.4579427069257358
ARM,Omega,35.88,-98.173,2011,2021,36.027473,-98.029045,35.875,-98.125,35.875,-98.175,832.1357421875,"('ARM', 'Omega')",1383.1524658203125,0.6016225707221521,35.75,-98.25,15.685974,2.372000036,0.8831274469153779
ARM,Pawhuska,36.841,-96.427,1996,2024,36.72578,-96.53527,36.875,-96.375,36.824997,-96.425,1011.7232055664062,"('ARM', 'Pawhuska')",1169.104248046875,0.8653832258813599,36.75,-96.25,15.027679,5.5080001119999995,1.461981613734867
ARM,Pawnee,36.31937,-96.76203,2015,2023,36.375854,-96.908714,36.375,-96.875,36.324997,-96.775,960.9863891601562,"('ARM', 'Pawnee')",1204.7586669921875,0.7976588303443083,36.25,-96.75,15.778076,2.4760000399999997,0.9275763099537718
ARM,Plevna,37.953,-98.329,1996,2011,37.785137,-98.40249,37.875,-98.375,37.975,-98.325005,741.1710815429688,"('ARM', 'Plevna')",1248.844970703125,0.5934852595239859,37.75,-98.25,13.526581,1.740000016,0.6666017800423567
ARM,Ringwood,36.431,-98.284,1993,2023,36.375854,-98.40249,36.375,-98.375,36.424995,-98.275,774.8563842773438,"('ARM', 'Ringwood')",1356.721435546875,0.5711241556119515,36.25,-98.25,15.574432,2.104000052,0.8884991849403298
ARM,Seminole,35.246,-96.736,1996,2002,35.335194,-96.908714,35.125,-96.625,35.225,-96.725006,1040.6591796875,"('ARM', 'Seminole')",1215.6212158203125,0.8560719129809309,35.25,-96.75,16.451385,2.088000036,0.8502088296351745
ARM,Towanda,37.842,-97.02,1996,2011,37.785137,-96.908714,37.875,-97.125,37.824997,-97.025,902.206787109375,"('ARM', 'Towanda')",1173.440185546875,0.7688562214092802,37.75,-97.25,13.781555,2.916000052,0.9489997485747947
ARM,Tryon,35.8615,-97.0695,2016,2023,36.027473,-96.908714,35.875,-97.125,35.875,-97.075005,972.185791015625,"('ARM', 'Tryon')",1242.3094482421875,0.7825633077098662,35.75,-97.25,16.054108,2.436000048,0.9305586108594371
ARM,Tyro,37.068,-95.788,1996,2024,37.07728,-95.78838,37.125,-95.875,37.074997,-95.775,1055.803466796875,"('ARM', 'Tyro')",1132.0811767578125,0.9326216957520744,37.25,-95.75,14.74118,3.44800006,1.1180758425265194
ARM,ValleyFloor,40.4622,-106.817,2010,2011,40.317745,-106.9917,40.375,-106.875,40.475,-106.825005,552.6288452148438,"('ARM', 'ValleyFloor')",771.6387939453125,0.716175559796971,40.25,-106.75,3.1279297,1.224000016,0.4078686400947265
ARM,Vici,36.061,-99.134,1996,2011,36.027473,-99.149376,36.125,-99.125,36.074997,-99.12501,724.3326416015625,"('ARM', 'Vici')",1422.28857421875,0.5092726291494198,36.25,-99.25,14.707947,1.680000024,0.7298735560703083
ARM,Waukomis,36.311,-97.928,2011,2024,36.375854,-98.029045,36.375,-97.875,36.324997,-97.925,817.1094360351562,"('ARM', 'Waukomis')",1316.78564453125,0.6205333718731656,36.25,-97.75,15.625824,4.168000104,1.1762306797294415
AWDN,Ainsworth,42.33,-99.49,2005,2010,42.185303,-99.52282,42.375,-99.375,42.324997,-99.475006,607.872802734375,"('AWDN', 'Ainsworth')",1033.5609130859375,0.5881344728095693,42.25,-99.25,8.987976,1.788000024,0.6210006568052634
AWDN,AllianceWest,42.01,-103.08,2004,2010,42.185303,-103.25726,42.125,-103.125,42.024994,-103.075005,400.0843811035156,"('AWDN', 'AllianceWest')",1133.119873046875,0.3530821324558703,42.25,-103.25,8.766602,1.256000024,0.4479602698033513
AWDN,Arthur,41.39,-101.31,2004,2010,41.431942,-101.390045,41.375,-101.375,41.374992,-101.325005,522.054931640625,"('AWDN', 'Arthur')",1117.905029296875,0.4669939914028119,41.25,-101.25,9.764343,1.4400000080000002,0.581092857589649
AWDN,Barta,42.14,-99.39,2002,2010,42.185303,-99.52282,42.125,-99.375,42.124992,-99.37501,604.245361328125,"('AWDN', 'Barta')",1038.48583984375,0.5818522873831765,42.25,-99.25,8.987976,1.6600000080000001,0.6011041925376103
AWDN,Beatrice,40.18,-96.56,2002,2005,40.317745,-96.53527,40.125,-96.625,40.174995,-96.575005,812.2267456054688,"('AWDN', 'Beatrice')",1115.3189697265625,0.7282461498925268,40.25,-96.75,11.627533,2.424000024,0.6559048957571535
AWDN,BruleNorthTable,41.09,-101.59,2007,2010,41.058483,-101.76349,41.125,-101.625,41.074997,-101.575005,514.2921142578125,"('AWDN', 'BruleNorthTable')",1142.1864013671875,0.4502698628194217,41.25,-101.75,9.712891,2.052000028,0.512722982091578
AWDN,Brunswick,42.21,-97.55,2004,2010,42.185303,-97.6556,42.125,-97.625,42.225,-97.525,702.470458984375,"('AWDN', 'Brunswick')",996.08447265625,0.7052318134335565,42.25,-97.75,9.348175,3.69600008,0.7059158286795006
AWDN,CedarPoint,41.12,-101.38,2004,2010,41.058483,-101.390045,41.125,-101.375,41.124992,-101.37501,487.9231567382813,"('AWDN', 'CedarPoint')",1139.5233154296875,0.4281818108779081,41.25,-101.25,9.764343,2.46400004,0.5863675164846829
AWDN,CentralCity,41.09,-97.58,2004,2010,41.058483,-97.6556,41.125,-97.625,41.074997,-97.575005,710.6119384765625,"('AWDN', 'CentralCity')",1061.9287109375,0.6691710386558949,41.25,-97.75,10.394836,3.168000048,0.771654287757444
AWDN,Champion,40.24,-101.43,2002,2010,40.317745,-101.390045,40.125,-101.375,40.225,-101.425,489.45220947265625,"('AWDN', 'Champion')",1187.8939208984375,0.4120336006959862,40.25,-101.25,10.868622,1.24400002,0.4326721001369211
AWDN,ClayCenter(SC),40.34,-98.08,2004,2010,40.317745,-98.029045,40.375,-98.125,40.324997,-98.075005,694.86865234375,"('AWDN', 'ClayCenter(SC)')",1115.676025390625,0.6228229669992772,40.25,-98.25,11.168213,3.160000056,0.731018204485129
AWDN,Concord(NE),42.23,-96.57,2005,2010,42.185303,-96.53527,42.125,-96.625,42.225,-96.575005,746.4634399414062,"('AWDN', 'Concord(NE)')",977.4271240234376,0.7637023994880533,42.25,-96.75,9.587372,3.6880000560000004,0.7853816440600723
AWDN,Cozad,40.58,-99.57,2004,2010,40.6871,-99.52282,40.625,-99.625,40.574997,-99.575005,619.4669189453125,"('AWDN', 'Cozad')",1090.4505615234375,0.5680834517429867,40.75,-99.75,10.159332,2.2280000319999997,0.5949409798613526
AWDN,Curtisunsta,40.38,-100.3,2002,2010,40.317745,-100.26971,40.375,-100.375,40.374992,-100.275,558.8150634765625,"('AWDN', 'Curtisunsta')",1141.522705078125,0.4895347775306121,40.25,-100.25,10.951843,2.096000028,0.6340254649529982
AWDN,Dickens,40.57,-100.59,2004,2005,40.6871,-100.64315,40.625,-100.625,40.574997,-100.575005,534.0767822265625,"('AWDN', 'Dickens')",1120.3046875,0.4767245805410079,40.75,-100.75,10.158417,1.7520000279999999,0.5899163548918009
AWDN,Elgin,41.56,-98.11,1999,2010,41.431942,-98.029045,41.625,-98.125,41.574997,-98.12501,675.6289672851562,"('AWDN', 'Elgin')",1013.0082397460938,0.6669530816990193,41.75,-98.25,9.46344,3.708000036,0.7377069856833081
AWDN,Gordon,42.44,-102.1,2004,2010,42.565308,-102.13693,42.375,-102.125,42.424995,-102.075005,475.7139892578125,"('AWDN', 'Gordon')",1083.2091064453125,0.4391709656309371,42.25,-102.25,8.566986,1.468000016,0.5208435517841289
AWDN,Gothenburg,40.57,-100.11,2005,2010,40.6871,-100.26971,40.625,-100.125,40.574997,-100.12501,575.4459228515625,"('AWDN', 'Gothenburg')",1094.22802734375,0.5258921435676104,40.75,-100.25,10.1822815,2.380000048,0.752714421183058
AWDN,GrandIsland,40.53,-98.3,2004,2010,40.6871,-98.40249,40.625,-98.375,40.524994,-98.275,690.698486328125,"('AWDN', 'GrandIsland')",1098.51318359375,0.6287575758249232,40.75,-98.25,10.661072,3.53200004,0.7385696067069728
AWDN,Gudmundsens,42.04,-101.26,1998,2005,42.185303,-101.390045,42.125,-101.375,42.024994,-101.275,555.1339111328125,"('AWDN', 'Gudmundsens')",1083.7159423828125,0.5122503872299007,42.25,-101.25,8.696747,1.080000016,0.4058324083845816
AWDN,Halsey,41.54,-100.09,2002,2010,41.431942,-100.26971,41.625,-100.125,41.524994,-100.075005,584.3650512695312,"('AWDN', 'Halsey')",1063.8394775390625,0.5492981446987845,41.75,-100.25,9.321106,2.34000004,0.745489063486818
AWDN,HigginsRanch,42.5,-99.15,2004,2010,42.565308,-99.149376,42.625,-99.125,42.524994,-99.12501,640.5846557617188,"('AWDN', 'HigginsRanch')",1015.9456787109376,0.6305304202627368,42.75,-99.25,9.1910095,2.660000036,0.799154329733813
AWDN,Holdrege,40.2,-99.22,2005,2010,40.317745,-99.149376,40.125,-99.125,40.225,-99.225006,628.1195068359375,"('AWDN', 'Holdrege')",1118.5506591796875,0.5615476614144432,40.25,-99.25,10.817841,1.9400000320000002,0.5537500757825277
AWDN,Holdrege4N,40.3,-99.21,2005,2010,40.317745,-99.149376,40.375,-99.125,40.324997,-99.225006,618.4447021484375,"('AWDN', 'Holdrege4N')",1105.29541015625,0.5595288793074886,40.25,-99.25,10.817841,3.052000064,0.657502830615165
AWDN,IndianCaveStPark,40.17,-95.37,1999,2005,40.317745,-95.41494,40.125,-95.375,40.174995,-95.37501,866.1464233398438,"('AWDN', 'IndianCaveStPark')",1068.265380859375,0.8107970536713125,40.25,-95.25,11.706848,2.98800004,0.6152856956274991
AWDN,Kearney,40.43,-99.01,2004,2010,40.317745,-99.149376,40.375,-99.125,40.424995,-99.025,656.0097045898438,"('AWDN', 'Kearney')",1095.9141845703125,0.598595869846372,40.25,-99.25,10.817841,3.4360000480000004,0.7350993071665383
AWDN,Lexington,40.46,-99.44,2004,2005,40.317745,-99.52282,40.375,-99.375,40.475,-99.425,639.5806884765625,"('AWDN', 'Lexington')",1097.1431884765625,0.5829509723016664,40.25,-99.25,10.817841,5.064000064,0.927477597805868
AWDN,Lincoln82E20S,40.47,-96.36,2004,2005,40.317745,-96.53527,40.375,-96.375,40.475,-96.37501,796.06787109375,"('AWDN', 'Lincoln82E20S')",1096.18017578125,0.7262199122752705,40.25,-96.25,11.720154,2.764000044,0.702609120622729
AWDN,McCook,40.14,-100.35,2005,2010,40.317745,-100.26971,40.125,-100.375,40.124992,-100.325005,561.4574584960938,"('AWDN', 'McCook')",1168.810546875,0.4803665230410858,40.25,-100.25,10.951843,1.516000032,0.5441162597766427
AWDN,Mead,41.09,-96.29,2005,2010,41.058483,-96.16183,41.125,-96.375,41.074997,-96.275,792.6393432617188,"('AWDN', 'Mead')",1056.930908203125,0.7499443313747679,41.25,-96.25,10.781708,2.960000048,0.6381214032724739
AWDN,MeadAgrofarm,41.09,-96.24,2005,2010,41.058483,-96.16183,41.125,-96.125,41.074997,-96.225006,796.5645141601562,"('AWDN', 'MeadAgrofarm')",1034.5601806640625,0.7699547392679063,41.25,-96.25,10.781708,3.592000008,0.7167985399698118
AWDN,Merna,41.27,-99.46,2004,2010,41.431942,-99.52282,41.375,-99.375,41.274994,-99.475006,611.49072265625,"('AWDN', 'Merna')",1052.6331787109375,0.580915303662655,41.25,-99.25,9.829559,2.49600004,0.7884719185472754
AWDN,Merritt,42.27,-100.54,2005,2010,42.185303,-100.64315,42.375,-100.625,42.274994,-100.525,544.2412109375,"('AWDN', 'Merritt')",1069.191162109375,0.509021426873547,42.25,-100.75,8.9131775,1.044000004,0.4091198238285193
AWDN,Minden,40.31,-99.03,2004,2010,40.317745,-99.149376,40.375,-99.125,40.324997,-99.025,644.1089477539062,"('AWDN', 'Minden')",1098.3553466796875,0.5864303840292109,40.25,-99.25,10.817841,2.52000004,0.6531253280871592
AWDN,MitchellFarms,41.56,-103.42,1999,2010,41.431942,-103.25726,41.625,-103.375,41.574997,-103.425,423.2595520019531,"('AWDN', 'MitchellFarms')",1170.6934814453125,0.3615460056029407,41.75,-103.25,9.822388,1.1120000079999999,0.38926627903979594
AWDN,Monroe,41.23,-97.31,2004,2005,41.058483,-97.28216,41.125,-97.375,41.225,-97.325005,707.38623046875,"('AWDN', 'Monroe')",1051.9742431640625,0.6724368348992251,41.25,-97.25,10.411041,4.316000028,0.8364687260045539
AWDN,NebraskaCity,40.32,-95.48,2005,2010,40.317745,-95.41494,40.375,-95.375,40.324997,-95.475006,857.68896484375,"('AWDN', 'NebraskaCity')",1068.60009765625,0.8026285667808853,40.25,-95.25,11.706848,2.288000032,0.824488723501277
AWDN,NebraskaCity2N,40.42,-95.53,2004,2005,40.317745,-95.41494,40.375,-95.625,40.424995,-95.525,843.60302734375,"('AWDN', 'NebraskaCity2N')",1055.71142578125,0.7990848699202672,40.25,-95.75,11.893158,2.648000052,0.7925685619933686
AWDN,Newport,42.35,-99.23,2005,2010,42.185303,-99.149376,42.375,-99.125,42.374992,-99.225006,628.3671875,"('AWDN', 'Newport')",1024.0926513671875,0.6135843145257562,42.25,-99.25,8.987976,3.7840000639999998,1.0440674956020473
AWDN,NorthPlatte,41.05,-100.46,2004,2010,41.058483,-100.64315,41.125,-100.375,41.074997,-100.475006,578.363037109375,"('AWDN', 'NorthPlatte')",1115.2916259765625,0.5185756116504089,41.25,-100.25,9.512604,3.408000052,0.8078967099030708
AWDN,ONeill,42.28,-98.45,1997,2010,42.185303,-98.40249,42.375,-98.375,42.274994,-98.425,659.32568359375,"('AWDN', 'ONeill')",1011.907958984375,0.6515668522416778,42.25,-98.25,9.3302,1.572000028,0.6178083990245127
AWDN,Ord,41.37,-98.56,1999,2010,41.431942,-98.40249,41.375,-98.625,41.374992,-98.575005,668.6575927734375,"('AWDN', 'Ord')",1042.0584716796875,0.6416699359447964,41.25,-98.75,10.05835,2.360000028,0.8010278357668288
AWDN,RedCloud,40.05,-98.17,2002,2010,39.950367,-98.029045,40.125,-98.125,40.074997,-98.175,700.0408325195312,"('AWDN', 'RedCloud')",1126.8818359375,0.6212193773956238,40.25,-98.25,11.168213,2.484000024,0.6356782012217628
AWDN,Scottsbluff,41.53,-103.4,2004,2010,41.431942,-103.25726,41.625,-103.375,41.524994,-103.37501,424.746826171875,"('AWDN', 'Scottsbluff')",1195.6917724609375,0.3552310352505592,41.75,-103.25,9.822388,1.176000008,0.41538853166437617
AWDN,Shelton,40.44,-98.45,2004,2010,40.317745,-98.40249,40.375,-98.375,40.424995,-98.425,675.012451171875,"('AWDN', 'Shelton')",1097.0570068359375,0.6152938698406414,40.25,-98.25,11.168213,1.696000012,0.6497265822877132
AWDN,Sidney,41.13,-103.01,2005,2010,41.058483,-102.88382,41.125,-103.125,41.124992,-103.025,449.0933532714844,"('AWDN', 'Sidney')",1175.3870849609375,0.3820812386129029,41.25,-103.25,9.825592,1.732000024,0.5947868364863518
AWDN,Smithfield,40.35,-99.4,2004,2010,40.317745,-99.52282,40.375,-99.375,40.374992,-99.37501,632.568603515625,"('AWDN', 'Smithfield')",1113.6824951171875,0.5679972580058043,40.25,-99.25,10.817841,2.7320000600000003,0.66180570507544
AWDN,Sparks,42.59,-100.12,2004,2010,42.565308,-100.26971,42.625,-100.125,42.574997,-100.12501,571.61328125,"('AWDN', 'Sparks')",1022.9183959960938,0.5588063363484401,42.75,-100.25,8.9496155,1.236000024,0.46276232378406135
AWDN,WestPoint,41.51,-96.44,1999,2010,41.431942,-96.53527,41.625,-96.375,41.524994,-96.425,777.8447265625,"('AWDN', 'WestPoint')",1024.6927490234375,0.7591004496750944,41.75,-96.25,10.253479,3.664000052,0.7601771739358838
AWDN,York,40.52,-97.37,2002,2010,40.6871,-97.28216,40.625,-97.375,40.524994,-97.37501,726.4473266601562,"('AWDN', 'York')",1102.2066650390625,0.659084498127591,40.75,-97.25,10.946869,3.044000056,0.6713720884195129
BIEBRZA_S-1,grassland-meteo-0,53.63083,22.98194,2015,2018,53.48089,22.966805,49.875,22.875,49.975,22.97499,519.7301635742188,"('BIEBRZA_S-1', 'grassland-meteo-0')",567.5851440429688,0.9156866930521228,53.75,22.75,7.4455566,5.5520001,1.4916480789591298
BIEBRZA_S-1,grassland-soil-1,53.63502,22.98104,2015,2018,53.48089,22.966805,49.875,22.875,49.975,22.97499,519.7301635742188,"('BIEBRZA_S-1', 'grassland-soil-1')",567.5851440429688,0.9156866930521228,53.75,22.75,7.4455566,5.560000092,1.6302065687341847
BIEBRZA_S-1,grassland-soil-2,53.63398,22.98128,2015,2018,53.48089,22.966805,49.875,22.875,49.975,22.97499,519.7301635742188,"('BIEBRZA_S-1', 'grassland-soil-2')",567.5851440429688,0.9156866930521228,53.75,22.75,7.4455566,5.560000092,1.6302065687341847
BIEBRZA_S-1,grassland-soil-3,53.63294,22.98151,2015,2018,53.48089,22.966805,49.875,22.875,49.975,22.97499,519.7301635742188,"('BIEBRZA_S-1', 'grassland-soil-3')",567.5851440429688,0.9156866930521228,53.75,22.75,7.4455566,5.5520001,1.4916480789591298
BIEBRZA_S-1,grassland-soil-4,53.6319,22.98174,2015,2018,53.48089,22.966805,49.875,22.875,49.975,22.97499,519.7301635742188,"('BIEBRZA_S-1', 'grassland-soil-4')",567.5851440429688,0.9156866930521228,53.75,22.75,7.4455566,5.5520001,1.4916480789591298
BIEBRZA_S-1,grassland-soil-5,53.63086,22.98197,2015,2018,53.48089,22.966805,49.875,22.875,49.975,22.97499,519.7301635742188,"('BIEBRZA_S-1', 'grassland-soil-5')",567.5851440429688,0.9156866930521228,53.75,22.75,7.4455566,5.5520001,1.4916480789591298
BIEBRZA_S-1,grassland-soil-6,53.63489,22.9793,2015,2018,53.48089,22.966805,49.875,22.875,49.975,22.97499,519.7301635742188,"('BIEBRZA_S-1', 'grassland-soil-6')",567.5851440429688,0.9156866930521228,53.75,22.75,7.4455566,5.560000092,1.6302065687341847
BIEBRZA_S-1,grassland-soil-7,53.63384,22.97952,2015,2018,53.48089,22.966805,49.875,22.875,49.975,22.97499,519.7301635742188,"('BIEBRZA_S-1', 'grassland-soil-7')",567.5851440429688,0.9156866930521228,53.75,22.75,7.4455566,5.560000092,1.6302065687341847
BIEBRZA_S-1,grassland-soil-8,53.6328,22.97976,2015,2018,53.48089,22.966805,49.875,22.875,49.975,22.97499,519.7301635742188,"('BIEBRZA_S-1', 'grassland-soil-8')",567.5851440429688,0.9156866930521228,53.75,22.75,7.4455566,5.5520001,1.4916480789591298
BIEBRZA_S-1,grassland-soil-9,53.63176,22.98,2015,2018,53.48089,22.966805,49.875,22.875,49.975,22.97499,519.7301635742188,"('BIEBRZA_S-1', 'grassland-soil-9')",567.5851440429688,0.9156866930521228,53.75,22.75,7.4455566,5.5520001,1.4916480789591298
BIEBRZA_S-1,marshland-meteo-10,53.6207,22.883,2015,2016,53.48089,22.966805,49.875,22.875,49.975,22.875,507.35052490234375,"('BIEBRZA_S-1', 'marshland-meteo-10')",570.1237182617188,0.8898954887357299,53.75,22.75,7.4455566,4.484000096,1.1353802359088208
BIEBRZA_S-1,marshland-meteo-20,53.62064,22.88308,2015,2016,53.48089,22.966805,49.875,22.875,49.975,22.875,507.35052490234375,"('BIEBRZA_S-1', 'marshland-meteo-20')",570.1237182617188,0.8898954887357299,53.75,22.75,7.4455566,4.484000096,1.1353802359088208
BIEBRZA_S-1,marshland-soil-11,53.60373,22.87763,2015,2018,53.48089,22.966805,49.875,22.875,49.975,22.875,507.35052490234375,"('BIEBRZA_S-1', 'marshland-soil-11')",570.1237182617188,0.8898954887357299,53.75,22.75,7.4455566,5.552000071999999,1.247457608283254
BIEBRZA_S-1,marshland-soil-12,53.60449,22.87979,2015,2018,53.48089,22.966805,49.875,22.875,49.975,22.875,507.35052490234375,"('BIEBRZA_S-1', 'marshland-soil-12')",570.1237182617188,0.8898954887357299,53.75,22.75,7.4455566,4.72400004,1.1524676397260836
BIEBRZA_S-1,marshland-soil-13,53.60526,22.88196,2015,2018,53.48089,22.966805,49.875,22.875,49.975,22.875,507.35052490234375,"('BIEBRZA_S-1', 'marshland-soil-13')",570.1237182617188,0.8898954887357299,53.75,22.75,7.4455566,4.72400004,1.1524676397260836
BIEBRZA_S-1,marshland-soil-14,53.60501,22.87634,2015,2018,53.48089,22.966805,49.875,22.875,49.975,22.875,507.35052490234375,"('BIEBRZA_S-1', 'marshland-soil-14')",570.1237182617188,0.8898954887357299,53.75,22.75,7.4455566,4.880000079999999,1.112904501408878
BIEBRZA_S-1,marshland-soil-15,53.60578,22.8785,2015,2018,53.48089,22.966805,49.875,22.875,49.975,22.875,507.35052490234375,"('BIEBRZA_S-1', 'marshland-soil-15')",570.1237182617188,0.8898954887357299,53.75,22.75,7.4455566,4.880000079999999,1.112904501408878
BIEBRZA_S-1,marshland-soil-16,53.60655,22.88066,2015,2018,53.48089,22.966805,49.875,22.875,49.975,22.875,507.35052490234375,"('BIEBRZA_S-1', 'marshland-soil-16')",570.1237182617188,0.8898954887357299,53.75,22.75,7.4455566,4.72400004,1.1524676397260836
BIEBRZA_S-1,marshland-soil-17,53.6063,22.87504,2015,2018,53.48089,22.966805,49.875,22.875,49.975,22.875,507.35052490234375,"('BIEBRZA_S-1', 'marshland-soil-17')",570.1237182617188,0.8898954887357299,53.75,22.75,7.4455566,4.880000079999999,1.112904501408878
BIEBRZA_S-1,marshland-soil-18,53.60707,22.87721,2015,2018,53.48089,22.966805,49.875,22.875,49.975,22.875,507.35052490234375,"('BIEBRZA_S-1', 'marshland-soil-18')",570.1237182617188,0.8898954887357299,53.75,22.75,7.4455566,4.880000079999999,1.112904501408878
BIEBRZA_S-1,marshland-soil-19,53.60784,22.87937,2015,2018,53.48089,22.966805,49.875,22.875,49.975,22.875,507.35052490234375,"('BIEBRZA_S-1', 'marshland-soil-19')",570.1237182617188,0.8898954887357299,53.75,22.75,7.4455566,4.880000079999999,1.112904501408878
BIEBRZA_S-1,marshland-soil-21,53.61864,22.87695,2015,2015,53.48089,22.966805,49.875,22.875,49.975,22.875,507.35052490234375,"('BIEBRZA_S-1', 'marshland-soil-21')",570.1237182617188,0.8898954887357299,53.75,22.75,7.4455566,5.00800006,1.1125782225459815
BIEBRZA_S-1,marshland-soil-22,53.61882,22.87945,2015,2015,53.48089,22.966805,49.875,22.875,49.975,22.875,507.35052490234375,"('BIEBRZA_S-1', 'marshland-soil-22')",570.1237182617188,0.8898954887357299,53.75,22.75,7.4455566,4.484000096,1.1353802359088208
BIEBRZA_S-1,marshland-soil-23,53.61899,22.88195,2015,2015,53.48089,22.966805,49.875,22.875,49.975,22.875,507.35052490234375,"('BIEBRZA_S-1', 'marshland-soil-23')",570.1237182617188,0.8898954887357299,53.75,22.75,7.4455566,4.484000096,1.1353802359088208
BIEBRZA_S-1,marshland-soil-24,53.62012,22.87665,2015,2015,53.48089,22.966805,49.875,22.875,49.975,22.875,507.35052490234375,"('BIEBRZA_S-1', 'marshland-soil-24')",570.1237182617188,0.8898954887357299,53.75,22.75,7.4455566,5.00800006,1.1125782225459815
BIEBRZA_S-1,marshland-soil-25,53.6203,22.87915,2015,2015,53.48089,22.966805,49.875,22.875,49.975,22.875,507.35052490234375,"('BIEBRZA_S-1', 'marshland-soil-25')",570.1237182617188,0.8898954887357299,53.75,22.75,7.4455566,5.00800006,1.1125782225459815
BIEBRZA_S-1,marshland-soil-26,53.62048,22.88165,2015,2015,53.48089,22.966805,49.875,22.875,49.975,22.875,507.35052490234375,"('BIEBRZA_S-1', 'marshland-soil-26')",570.1237182617188,0.8898954887357299,53.75,22.75,7.4455566,4.484000096,1.1353802359088208
BIEBRZA_S-1,marshland-soil-27,53.6216,22.87634,2015,2015,53.48089,22.966805,49.875,22.875,49.975,22.875,507.35052490234375,"('BIEBRZA_S-1', 'marshland-soil-27')",570.1237182617188,0.8898954887357299,53.75,22.75,7.4455566,5.004000084,1.1601951300361137
BIEBRZA_S-1,marshland-soil-28,53.62178,22.87884,2015,2015,53.48089,22.966805,49.875,22.875,49.975,22.875,507.35052490234375,"('BIEBRZA_S-1', 'marshland-soil-28')",570.1237182617188,0.8898954887357299,53.75,22.75,7.4455566,5.004000084,1.1601951300361137
BIEBRZA_S-1,marshland-soil-29,53.62196,22.88135,2015,2015,53.48089,22.966805,49.875,22.875,49.975,22.875,507.35052490234375,"('BIEBRZA_S-1', 'marshland-soil-29')",570.1237182617188,0.8898954887357299,53.75,22.75,7.4455566,4.496000056000001,1.152516360691882
BNZ-LTER,CRREL-Met,65.15426,-147.49038,1992,2013,64.98099,-147.32365,49.875,-147.375,49.975,-147.475,,"('BNZ-LTER', 'CRREL-Met')",434.6645202636719,,65.25,-147.25,-3.3970642,4.168000052,0.9645959875666686
BNZ-LTER,FP1A,64.6986,-148.25769,1989,2013,64.98099,-148.44398,49.875,-148.375,49.975,-148.27501,,"('BNZ-LTER', 'FP1A')",476.9433898925781,,64.75,-148.25,-1.5084534,2.556000024,0.5134109085854303
BNZ-LTER,FP2A,64.69878,-148.25247,1989,2013,64.98099,-148.07054,49.875,-148.375,49.975,-148.27501,,"('BNZ-LTER', 'FP2A')",476.9433898925781,,64.75,-148.25,-1.5084534,2.556000024,0.5134109085854303
BNZ-LTER,FP3A,64.72323,-148.15094,1988,2013,64.98099,-148.07054,49.875,-148.125,49.975,-148.175,,"('BNZ-LTER', 'FP3A')",474.0233459472656,,64.75,-148.25,-1.5084534,1.108000004,0.2837100939198495
BNZ-LTER,FP4A,64.67879,-148.23686,1989,2013,64.98099,-148.07054,49.875,-148.125,49.975,-148.225,,"('BNZ-LTER', 'FP4A')",474.0233459472656,,64.75,-148.25,-1.5084534,3.472000044,0.8828004789470616
BNZ-LTER,FP5A,64.68148,-148.24906,1989,2013,64.98099,-148.07054,49.875,-148.125,49.975,-148.225,,"('BNZ-LTER', 'FP5A')",474.0233459472656,,64.75,-148.25,-1.5084534,1.992000036,0.5389182757566073
BNZ-LTER,HELMERS,65.17092,-147.54357,2001,2013,64.98099,-147.6971,49.875,-147.625,49.975,-147.52501,,"('BNZ-LTER', 'HELMERS')",434.6645202636719,,65.25,-147.75,-3.2778625,3.600000064,0.6406586180505144
BNZ-LTER,LTER1,64.74296,-148.31635,1988,2013,64.98099,-148.44398,49.875,-148.375,49.975,-148.32501,,"('BNZ-LTER', 'LTER1')",476.9433898925781,,64.75,-148.25,-1.5084534,5.996000092,1.4624087452662593
BNZ-LTER,LTER2,64.6989,-148.25491,1988,2013,64.98099,-148.07054,49.875,-148.375,49.975,-148.27501,,"('BNZ-LTER', 'LTER2')",476.9433898925781,,64.75,-148.25,-1.5084534,2.556000024,0.5134109085854303
BNZ-LTER,UP1A,64.73554,-148.30273,1989,2013,64.98099,-148.44398,49.875,-148.375,49.975,-148.32501,,"('BNZ-LTER', 'UP1A')",476.9433898925781,,64.75,-148.25,-1.5084534,5.71200014,1.3454271494339871
BNZ-LTER,UP2A,64.69546,-148.35568,1988,2013,64.98099,-148.44398,49.875,-148.375,49.975,-148.375,,"('BNZ-LTER', 'UP2A')",479.7586669921875,,64.75,-148.25,-1.5084534,5.700000124000001,1.4007414553852748
BNZ-LTER,UP3A,64.76743,-148.2795,1989,2013,64.98099,-148.44398,49.875,-148.375,49.975,-148.27501,,"('BNZ-LTER', 'UP3A')",474.9949645996094,,64.75,-148.25,-1.5084534,5.300000044,1.2699225391312525
CALABRIA,ChiaravalleCentrale,38.671,16.409,2001,2012,38.499725,16.244814,38.625,16.375,38.674995,16.425003,832.7628784179688,"('CALABRIA', 'ChiaravalleCentrale')",983.5213623046876,0.846715597988186,38.75,16.25,16.08368,,
CALABRIA,Fitterizzi,39.52,16.141,2001,2012,39.58492,16.244814,39.625,16.125,39.524994,16.125,900.0278930664062,"('CALABRIA', 'Fitterizzi')",935.2604370117188,0.9623286278869176,39.75,16.25,14.420258,3.540000032,1.6629401501728185
CALABRIA,Mongrassano,39.534,16.216,2001,2011,39.58492,16.244814,39.625,16.125,39.524994,16.22499,836.1612548828125,"('CALABRIA', 'Mongrassano')",885.5671997070312,0.9442098297672232,39.75,16.25,14.420258,2.344000048,1.0058178096477213
CALABRIA,Satriano,38.675,16.543,2001,2012,38.499725,16.618258,38.625,16.625,38.674995,16.524994,789.8892822265625,"('CALABRIA', 'Satriano')",,,38.75,16.75,17.386108,1.3800000120000002,0.8641082074236276
CALABRIA,Torano,39.5,16.211,2001,2012,39.58492,16.244814,39.625,16.125,39.524994,16.22499,836.1612548828125,"('CALABRIA', 'Torano')",885.5671997070312,0.9442098297672232,39.75,16.25,14.420258,1.5960000120000002,0.8532077256959697
CAMPANIA,Bagnoli,40.828,15.073,2000,2012,40.6871,15.124481,40.875,15.125,40.824997,15.074997,721.3651733398438,"('CAMPANIA', 'Bagnoli')",858.145263671875,0.8406096308837391,40.75,15.25,13.678375,2.012000036,0.7473030205954259
CAMPANIA,Melizzano,41.169,14.5,2000,2012,41.058483,14.377593,41.125,14.625,41.174995,14.524994,764.7256469726562,"('CAMPANIA', 'Melizzano')",857.7523803710938,0.8915459338530883,41.25,14.75,13.540863,1.988000032,0.9786700889717105
CHINA,BAISE,23.9,106.6,1982,1999,23.978218,106.618256,23.875,106.625,23.924995,106.57501,1104.7525634765625,"('CHINA', 'BAISE')",926.6724243164062,1.192171618025133,23.75,106.75,21.605865,,
CHINA,BAOQING,46.32,132.18,1981,1999,46.502296,132.01245,46.375,132.125,46.324997,132.17499,542.6890258789062,"('CHINA', 'BAOQING')",697.4766235351562,0.7780748595247394,46.25,132.25,3.6028442,1.9960000199999999,0.34245937100912804
CHINA,BAYAN,46.08,127.35,1981,1999,46.09634,127.53112,46.125,127.375,46.074997,127.32501,605.4452514648438,"('CHINA', 'BAYAN')",766.4231567382812,0.7899621066272031,46.25,127.25,3.5651245,5.528000068,0.85584354302556
CHINA,BOLI,45.75,130.55,1981,1999,45.693314,130.51868,45.875,130.625,45.774994,130.525,589.3680419921875,"('CHINA', 'BOLI')",681.19921875,0.8651918936044545,45.75,130.75,3.2189026,2.5000000399999998,0.4848460153600216
CHINA,CHANGLIN,44.25,123.97,1981,1999,44.108894,123.796684,44.375,123.875,44.274994,123.975006,484.8665161132813,"('CHINA', 'CHANGLIN')",893.9855346679688,0.5423650577225094,44.25,123.75,6.3766174,2.3320000480000003,0.47320680161074963
CHINA,CHAOYANG,41.55,120.45,1981,1999,41.431942,120.435684,41.625,120.375,41.574997,120.475006,517.4165649414062,"('CHINA', 'CHAOYANG')",997.3643798828124,0.5187838821777465,41.75,120.25,8.122589,1.124000004,0.3314781061035506
CHINA,DUNHUA,43.37,128.2,1981,1999,43.332268,128.27802,43.375,128.125,43.374992,128.225,684.495361328125,"('CHINA', 'DUNHUA')",662.9812622070312,1.032450538721825,43.25,128.25,4.054291,1.7840000040000001,0.43543630434103575
CHINA,FUYU,47.8,124.48,1981,1999,47.738617,124.54357,47.875,124.375,47.824997,124.475006,493.4763793945313,"('CHINA', 'FUYU')",769.3225708007812,0.6414427421268506,47.75,124.25,3.5682373,,
CHINA,FUYU2,45.18,124.83,1981,1999,45.293133,124.917015,45.125,124.875,45.174995,124.82501,465.528564453125,"('CHINA', 'FUYU2')",891.095947265625,0.5224224909580433,45.25,124.75,5.8203735,,
CHINA,GUYUAN,36.0,106.27,1984,1999,36.027473,106.24481,36.125,106.375,36.024994,106.274994,457.2145690917969,"('CHINA', 'GUYUAN')",836.224853515625,0.5467603207075138,36.25,106.25,7.5165405,0.47600000000000003,0.19067115975811627
CHINA,HAERBIN,45.75,126.77,1984,1999,45.693314,126.78423,45.875,126.875,45.774994,126.774994,559.2066650390625,"('CHINA', 'HAERBIN')",806.552978515625,0.693329117782471,45.75,126.75,4.4403076,2.500000028,0.4546599200799771
CHINA,HAILUN,47.43,126.97,1984,1999,47.32334,126.78423,47.375,126.875,47.424995,126.975006,616.3238525390625,"('CHINA', 'HAILUN')",719.495361328125,0.8566057346101342,47.25,126.75,2.5982666,4.7600000840000005,0.6829037820319585
CHINA,HAINONG,42.53,125.63,1981,1999,42.565308,125.6639,42.625,125.625,42.524994,125.625,787.3367309570312,"('CHINA', 'HAINONG')",761.868896484375,1.0334281063187865,42.75,125.75,6.0308533,4.62400008,0.8022127252598898
CHINA,HUANXIAN,36.58,107.3,1983,1999,36.72578,107.36514,36.625,107.375,36.574997,107.274994,461.5265808105469,"('CHINA', 'HUANXIAN')",972.5010986328124,0.4745769248583703,36.75,107.25,8.732178,1.028000008,0.3196636061331712
CHINA,HULIN,45.77,132.97,1981,1999,45.693314,133.13278,45.875,132.875,45.774994,132.975,575.9083251953125,"('CHINA', 'HULIN')",689.42578125,0.835344921611622,45.75,132.75,3.821167,,
CHINA,HUMA,51.72,126.65,1981,1999,51.63809,126.78423,49.875,126.625,49.975,126.67499,485.7795104980469,"('CHINA', 'HUMA')",632.9178466796875,0.7675237995680889,51.75,126.75,-0.46884155,1.4960000199999999,0.29808339679547313
CHINA,JIAMUSI,46.82,130.28,1984,1999,46.911266,130.14523,46.875,130.375,46.824997,130.275,577.484130859375,"('CHINA', 'JIAMUSI')",713.6546020507812,0.809192751227131,46.75,130.25,3.6096802,,
CHINA,JIANPIN,41.38,119.7,1981,1999,41.431942,119.6888,41.375,119.625,41.374992,119.725006,552.1509399414062,"('CHINA', 'JIANPIN')",966.0515747070312,0.5715543086908728,41.25,119.75,8.641418,2.276000044,0.5685575188950373
CHINA,JIAYIN,48.88,130.4,1981,1999,49.00465,130.51868,48.875,130.375,48.874992,130.42499,672.1217041015625,"('CHINA', 'JIAYIN')",623.77001953125,1.0775152428881525,48.75,130.25,0.8512268,1.776000028,0.4252726424607007
CHINA,JINJIANG,24.82,118.57,1984,1992,24.906843,118.56847,24.875,118.625,24.824997,118.57501,1230.583984375,"('CHINA', 'JINJIANG')",1224.33447265625,1.0051044153851123,24.75,118.75,21.358276,,
CHINA,JINXIAN,39.08,121.7,1981,1999,39.22136,121.556015,39.125,121.625,39.074997,121.725006,633.6560668945312,"('CHINA', 'JINXIAN')",,,39.25,121.75,10.818237,,
CHINA,JINZHOU,41.15,121.15,1981,1999,41.058483,121.18257,41.125,121.125,41.174995,121.17499,592.3519287109375,"('CHINA', 'JINZHOU')",946.671875,0.6257204257926617,41.25,121.25,9.670685,,
CHINA,LUSHI,34.0,111.02,1981,1999,33.967724,111.09959,34.125,111.125,34.024994,111.024994,723.7285766601562,"('CHINA', 'LUSHI')",836.5178833007812,0.8651680867890422,34.25,111.25,11.21286,1.784000012,0.6002769133301983
CHINA,NANCHONG,30.68,106.1,1981,1999,30.638416,106.24481,30.625,106.125,30.674995,106.07501,1115.23876953125,"('CHINA', 'NANCHONG')",846.8565673828125,1.3169157712006243,30.75,106.25,17.91391,1.080000016,0.31520553412050945
CHINA,NANYANG,33.03,112.58,1981,1999,32.956165,112.59336,33.125,112.625,33.024994,112.57501,859.2899780273438,"('CHINA', 'NANYANG')",994.2232055664062,0.8642827618751954,33.25,112.75,15.200531,1.156000016,0.3930402561872031
CHINA,QINGGANG,46.68,126.1,1981,1999,46.502296,126.037346,46.625,126.125,46.674995,126.07501,553.0995483398438,"('CHINA', 'QINGGANG')",808.154052734375,0.6843986569991714,46.75,126.25,3.5540466,,
CHINA,SHACHE,38.43,77.27,1981,1999,38.499725,77.11618,38.375,77.375,38.424995,77.274994,45.12739944458008,"('CHINA', 'SHACHE')",1175.2412109375,0.0383984147463494,38.25,77.25,12.248291,1.044000016,0.4274144083277564
CHINA,SUXIAN,33.65,116.97,1981,1999,33.629246,117.07469,33.625,116.875,33.674995,116.975006,572.122314453125,"('CHINA', 'SUXIAN')",996.3123168945312,0.5742399293390341,33.75,116.75,15.103455,,
CHINA,TIANSHUI,34.58,105.75,1981,1999,34.64869,105.87137,34.625,105.875,34.574997,105.774994,565.967041015625,"('CHINA', 'TIANSHUI')",782.1443481445312,0.723609449276543,34.75,105.75,10.28186,,
CHINA,TONGWEI,35.22,105.23,1981,1999,35.335194,105.12448,35.125,105.125,35.225,105.225006,535.9336547851562,"('CHINA', 'TONGWEI')",798.0152587890625,0.6715832170908631,35.25,105.25,7.24646,,
CHINA,TULUFAN,42.83,89.25,1981,1999,42.94761,89.06639,42.875,89.375,42.824997,89.274994,27.11810111999512,"('CHINA', 'TULUFAN')",1045.2398681640625,0.0259443807550389,42.75,89.25,15.985321,1.7240000119999999,0.5992388595124354
CHINA,WULAWUSU,44.28,85.82,1981,1999,44.108894,85.70539,44.375,85.875,44.274994,85.82501,189.8565826416016,"('CHINA', 'WULAWUSU')",914.1650390625,0.2076830490436436,44.25,85.75,7.8637085,2.940000052,0.629228560325436
CHINA,XIFENGZH,35.73,107.63,1981,1999,35.680595,107.73859,35.625,107.625,35.725,107.625,608.8257446289062,"('CHINA', 'XIFENGZH')",954.6951293945312,0.6377174512401925,35.75,107.75,10.417572,,
CHINA,XILINGUO,39.08,105.38,1981,1998,39.22136,105.497925,39.125,105.375,39.074997,105.375,176.2937469482422,"('CHINA', 'XILINGUO')",1085.811279296875,0.1623613148155934,39.25,105.25,9.267853,0.488,0.18664945103205974
CHINA,XINMIN,41.98,122.8,1981,1999,41.80753,122.676346,41.875,122.875,41.975,122.774994,644.0208129882812,"('CHINA', 'XINMIN')",945.6279296875,0.6810509638829192,41.75,122.75,9.143158,1.2480000119999999,0.36928459208459175
CHINA,XINXIAN,35.17,113.82,1981,1999,35.335194,113.71369,35.125,113.875,35.174995,113.82501,623.422119140625,"('CHINA', 'XINXIAN')",1042.3133544921875,0.5981139131085533,35.25,113.75,15.17569,4.6920001000000005,1.0042793180208236
CHINA,XUZHOU,34.27,117.28,1981,1999,34.30753,117.448135,34.375,117.375,34.274994,117.274994,858.4595947265625,"('CHINA', 'XUZHOU')",1022.6344604492188,0.8394588955563475,34.25,117.25,14.76828,,
CHINA,YONGNING,38.25,106.23,1984,1999,38.14157,106.24481,38.375,106.125,38.274994,106.225006,193.44158935546875,"('CHINA', 'YONGNING')",1032.493896484375,0.1873537364377012,38.25,106.25,10.39856,1.54000002,0.4926426225470559
CHINA,ZHENJIA,32.18,119.47,1981,1999,32.28808,119.31535,32.125,119.375,32.174995,119.475006,1142.6243896484375,"('CHINA', 'ZHENJIA')",969.6945190429688,1.1783343797551216,32.25,119.25,15.799866,1.0080000040000001,0.32428236225627516
CHINA,ZHUMADIA,33.0,114.02,1981,1999,32.956165,114.087135,33.125,114.125,33.024994,114.024994,819.2160034179688,"('CHINA', 'ZHUMADIA')",1000.8272094726562,0.8185389002859146,33.25,114.25,15.5896,,
COSMOS,ARM-1,36.6054,-97.4878,2010,2018,36.72578,-97.6556,36.625,-97.375,36.625,-97.475006,876.09130859375,"('COSMOS', 'ARM-1')",1296.5479736328125,0.6757106766663017,36.75,-97.25,15.190063,1.4560000160000002,0.6180572661896321
COSMOS,AustinCary,29.7381,-82.2188,2011,2014,29.661814,-82.3444,29.625,-82.125,29.724998,-82.225006,1217.5277099609375,"('COSMOS', 'AustinCary')",1191.100341796875,1.022187356712697,29.75,-82.25,20.375275,6.651999948,4.49120803235664
COSMOS,Baldry,-32.871,148.526,2011,2014,-32.956165,148.44398,-32.875,148.625,-32.875,148.525,605.6414184570312,"('COSMOS', 'Baldry')",1239.1639404296875,0.4887500343554392,-32.75,148.75,15.621063,2.31200004,0.9884918693213304
COSMOS,Barrow-ARM,71.3298,-156.6287,2014,2020,70.935745,-156.65974,49.875,-156.625,49.975,-156.625,,"('COSMOS', 'Barrow-ARM')",210.1141967773437,,71.25,-156.75,-10.348236,,
COSMOS,BaynesfieldProbe1,-29.7594,30.3375,2014,2018,-29.661814,30.435684,-29.875,30.375,-29.775,30.324997,795.089111328125,"('COSMOS', 'BaynesfieldProbe1')",1059.8690185546875,0.7501767646839652,-29.75,30.25,16.348114,5.8080000919999994,1.6878353117688636
COSMOS,Beltsville,39.0295,-76.8462,2012,2015,38.859642,-76.74274,39.125,-76.875,39.024994,-76.825005,1131.1561279296875,"('COSMOS', 'Beltsville')",982.5964965820312,1.1511908823860273,39.25,-76.75,13.27243,2.372000032,0.9215071693138813
COSMOS,Biosphere,32.5795,-110.851,2008,2011,32.62151,-110.72614,32.625,-110.875,32.574997,-110.87501,366.1847229003906,"('COSMOS', 'Biosphere')",1525.2042236328125,0.2400889777423985,32.75,-110.75,18.66101,0.964000004,0.4180487418593696
COSMOS,Bondville,40.0062,-88.2904,2011,2020,39.950367,-88.3195,40.125,-88.375,40.024994,-88.275,1007.3115844726562,"('COSMOS', 'Bondville')",973.8347778320312,1.0343762693658891,40.25,-88.25,11.3862,4.936000064,0.8144668843763183
COSMOS,Brookings,44.3453,-96.8362,2011,2013,44.501,-96.908714,44.375,-96.875,44.324997,-96.825005,623.6605224609375,"('COSMOS', 'Brookings')",866.5206298828125,0.7197295724457026,44.25,-96.75,7.0684814,4.432000088,1.0585987827343402
COSMOS,Bushland,35.1882,-102.0955,2012,2020,35.335194,-102.13693,35.125,-102.125,35.174995,-102.075005,477.1484069824219,"('COSMOS', 'Bushland')",1554.4654541015625,0.3069533682613746,35.25,-102.25,14.443787,1.444000016,0.574263276130178
COSMOS,CCPasture,41.2688,-97.947,2014,2020,41.431942,-98.029045,41.375,-97.875,41.274994,-97.925,680.7929077148438,"('COSMOS', 'CCPasture')",1043.8077392578125,0.6522205978266781,41.25,-97.75,10.394836,1.8440000280000002,0.625381402074636
COSMOS,CPTECINPE,-22.6798,-44.99813,2014,2020,-22.7501,-45.0,-22.625,-44.875,-22.675,-44.975006,1407.3831787109375,"('COSMOS', 'CPTECINPE')",1077.66552734375,1.305955459278615,-22.75,-44.75,19.65097,2.76800004,1.4762298751274099
COSMOS,CaribouBog,44.9167,-68.7359,2012,2013,44.89572,-68.90041,44.875,-68.625,44.924995,-68.725006,1039.1220703125,"('COSMOS', 'CaribouBog')",723.6395263671875,1.4359664341845682,44.75,-68.75,7.048401,4.680000140000001,1.5679710794525727
COSMOS,CathedralPeakC6,-28.9932,29.2517,2014,2015,-29.01589,29.315353,-28.875,29.375,-28.975,29.274994,849.470947265625,"('COSMOS', 'CathedralPeakC6')",1070.3812255859375,0.7936153278479039,-28.75,29.25,14.282196,4.43200006,1.2916067191459626
COSMOS,ChestnutRidgeNOAA,35.9311,-84.3324,2011,2013,36.027473,-84.21162,35.875,-84.375,35.924995,-84.325005,1415.9202880859375,"('COSMOS', 'ChestnutRidgeNOAA')",962.19384765625,1.4715540860450234,35.75,-84.25,15.0616455,6.48400006,2.612003227154481
COSMOS,ChimneyMeadows,51.71,-1.48,2011,2011,51.63809,-1.3070539,49.875,-1.375,49.975,-1.4750061,,"('COSMOS', 'ChimneyMeadows')",571.4230346679688,,51.75,-1.25,10.094696,3.2320000479999997,1.0177044300521672
COSMOS,CoastalSageUCI,33.7342,-117.6961,2011,2020,33.629246,-117.82158,33.625,-117.625,33.725,-117.675,317.8198547363281,"('COSMOS', 'CoastalSageUCI')",1196.169677734375,0.2656979696545227,33.75,-117.75,16.95868,2.080000036,0.7859624189615048
COSMOS,Coweeta,35.0662,-83.437,2011,2016,34.991234,-83.46473,35.125,-83.375,35.074997,-83.425,1878.54248046875,"('COSMOS', 'Coweeta')",925.9947509765624,2.0286750853475377,35.25,-83.25,11.475067,6.59600004,2.809677101773771
COSMOS,Daly,-14.1592,131.3881,2011,2017,-14.119713,131.26556,-14.125,131.375,-14.174999,131.375,1126.29052734375,"('COSMOS', 'Daly')",1827.5673828125,0.6162785229896512,-14.25,131.25,27.226562,2.48000002,1.2554996569535084
COSMOS,DanielForest,41.86,-111.5,2011,2020,41.80753,-111.47303,41.875,-111.375,41.874992,-111.475006,482.0008544921875,"('COSMOS', 'DanielForest')",869.2433471679688,0.5545062335680411,41.75,-111.25,4.9483337,2.388000032,0.654922309173555
COSMOS,Derlo,52.1695,23.3693,2013,2015,52.091694,23.340248,49.875,23.375,49.975,23.375,569.6700439453125,"('COSMOS', 'Derlo')",630.2959594726562,0.903813574216679,52.25,23.25,7.944031,3.1960000600000003,0.8677189511146718
COSMOS,DesertChaparralUCI,33.6094,-116.4506,2011,2020,33.629246,-116.327805,33.625,-116.375,33.625,-116.475006,307.10675048828125,"('COSMOS', 'DesertChaparralUCI')",1399.8751220703125,0.2193815331428227,33.75,-116.25,20.112152,0.49200000000000005,0.28774215735954867
COSMOS,FlagPonderosaPine,35.4386,-111.8036,2012,2020,35.335194,-111.84647,35.375,-111.875,35.424995,-111.825005,497.6686096191406,"('COSMOS', 'FlagPonderosaPine')",1320.7711181640625,0.3768015538611449,35.25,-111.75,8.8993225,2.02400002,1.0437755991894262
COSMOS,FlagWildfire,35.4455,-111.7719,2012,2019,35.335194,-111.84647,35.375,-111.875,35.424995,-111.775,522.55712890625,"('COSMOS', 'FlagWildfire')",1320.7711181640625,0.3956454844595863,35.25,-111.75,8.8993225,0.912,0.37540424309989523
COSMOS,FortPeck,48.3077,-105.1019,2011,2018,48.15719,-105.12448,48.375,-105.125,48.324997,-105.12501,331.7496643066406,"('COSMOS', 'FortPeck')",921.59765625,0.3599723394008366,48.25,-105.25,5.934784,1.152000012,0.36403984385723454
COSMOS,FreemanRanch,29.9492,-97.9966,2011,2020,29.9863,-98.029045,29.875,-97.875,29.924995,-97.975006,915.1524047851562,"('COSMOS', 'FreemanRanch')",1350.37939453125,0.6777002140963712,29.75,-97.75,20.6044,2.69600004,1.3236891934447552
COSMOS,GLEES,41.3644,-106.2394,2011,2017,41.431942,-106.24481,41.375,-106.125,41.374992,-106.225006,484.15325927734375,"('COSMOS', 'GLEES')",871.2470092773438,0.55570148777776,41.25,-106.25,2.0289307,1.44800002,0.41843563983910675
COSMOS,Gnangara,-31.3767,115.7132,2011,2017,-31.294872,115.58091,-31.375,115.625,-31.375,115.725006,657.4169311523438,"('COSMOS', 'Gnangara')",1567.113037109375,0.4195083032204141,-31.25,115.75,18.470245,1.368000012,0.9050980330501672
COSMOS,Gobabeb,-23.5509,15.05139,2014,2017,-23.67014,15.124481,-23.625,15.125,-23.575,15.074997,16.221355438232422,"('COSMOS', 'Gobabeb')",1778.2127685546875,0.0091222803733531,-23.75,15.25,21.623413,,
COSMOS,GoodwinCreek,34.255,-89.8735,2012,2020,34.30753,-89.81328,34.375,-89.875,34.274994,-89.87501,1408.8497314453125,"('COSMOS', 'GoodwinCreek')",1089.627685546875,1.2929643309661525,34.25,-89.75,17.06308,5.248000075999999,1.7933169527218507
COSMOS,Griffith,-34.2527,146.1202,2011,2013,-34.30753,146.20332,-34.375,146.125,-34.275,146.125,409.4347839355469,"('COSMOS', 'Griffith')",1410.142578125,0.2903499194244265,-34.25,146.25,17.020538,1.068000004,0.5646978346195737
COSMOS,HarvardForest,42.5378,-72.1715,2011,2020,42.565308,-72.26141,42.625,-72.125,42.524994,-72.175,1193.216796875,"('COSMOS', 'HarvardForest')",800.4230346679688,1.4907327065743052,42.75,-72.25,8.532562,6.38800008,2.453182880993122
COSMOS,HauserFarmNorth,34.5798,-111.8627,2011,2012,34.64869,-111.84647,34.625,-111.875,34.574997,-111.87501,392.6249084472656,"('COSMOS', 'HauserFarmNorth')",1259.624267578125,0.3117000192463456,34.75,-111.75,13.649414,1.492000012,0.6376428412529846
COSMOS,HauserFarmSouth,34.5766,-111.8585,2011,2012,34.64869,-111.84647,34.625,-111.875,34.574997,-111.87501,392.6249084472656,"('COSMOS', 'HauserFarmSouth')",1259.624267578125,0.3117000192463456,34.75,-111.75,13.649414,1.292000016,0.6229436379107868
COSMOS,HavikpakMainMet,68.3199,-133.5198,2013,2016,68.51881,-133.50623,49.875,-133.625,49.975,-133.52501,,"('COSMOS', 'HavikpakMainMet')",358.30615234375,,68.25,-133.75,-7.657074,2.256000032,0.6007900271931814
COSMOS,Hermosillo,29.7369,-110.5054,2012,2015,29.661814,-110.3527,29.625,-110.625,29.724998,-110.525,441.1836242675781,"('COSMOS', 'Hermosillo')",1576.3133544921875,0.2798831989910447,29.75,-110.75,21.31601,1.6040000159999999,0.5600546019513056
COSMOS,Howland,45.2041,-68.7402,2011,2020,45.293133,-68.90041,45.125,-68.625,45.225,-68.725006,1117.11279296875,"('COSMOS', 'Howland')",714.0013427734375,1.5645808012481923,45.25,-68.75,6.6500244,6.592000028,2.5995948021491637
COSMOS,IowaValidationSite,41.9832,-93.6837,2010,2020,41.80753,-93.547714,41.875,-93.625,41.975,-93.675,893.1901245117188,"('COSMOS', 'IowaValidationSite')",939.1004028320312,0.9511124921447572,41.75,-93.75,9.925201,3.580000076,0.6804098643535995
COSMOS,IslandDairy,19.998,-155.2859,2010,2015,20.024717,-155.16597,19.875,-155.375,19.974998,-155.27501,2460.732177734375,"('COSMOS', 'IslandDairy')",1306.490478515625,1.883467364056221,19.75,-155.25,16.327026,3.24000004,1.674076198619003
COSMOS,JERC,31.2364,-84.4617,2011,2017,31.294872,-84.58506,31.125,-84.375,31.224998,-84.475006,1303.3388671875,"('COSMOS', 'JERC')",1203.64697265625,1.0828248621032517,31.25,-84.25,19.309387,4.828000076,1.9329921767138982
COSMOS,Jonesboro,35.7522,-90.764,2013,2015,35.680595,-90.93361,35.875,-90.875,35.774994,-90.775,1236.3240966796875,"('COSMOS', 'Jonesboro')",1113.1224365234375,1.1106811399301588,35.75,-90.75,16.12143,2.988000032,0.5682630290984663
COSMOS,JornadaMixedShrubland,32.58,-106.6,2013,2016,32.62151,-106.618256,32.625,-106.625,32.574997,-106.575005,283.42364501953125,"('COSMOS', 'JornadaMixedShrubland')",1405.4649658203125,0.2016582781585796,32.75,-106.75,17.211182,0.46,0.22507173406303843
COSMOS,Juelich,50.503,6.3314,2011,2013,50.303333,6.1618257,49.875,6.375,49.975,6.324997,874.8710327148438,"('COSMOS', 'Juelich')",583.2648315429688,1.4999550554084669,50.75,6.25,9.386597,6.576000024,1.9824527852035068
COSMOS,KLEE,0.2825,36.8669,2011,2020,0.4236687,36.784233,0.375,36.875,0.2749977,36.875,738.5062866210938,"('COSMOS', 'KLEE')",1452.7188720703125,0.5083614598939068,0.25,36.75,18.509125,1.6320000200000002,0.6885322102111678
COSMOS,Kendall,31.7368,-109.9418,2010,2017,31.62478,-109.979256,31.625,-109.875,31.724998,-109.925,343.8341064453125,"('COSMOS', 'Kendall')",1403.5672607421875,0.2449715920728285,31.75,-109.75,17.190094,0.924000008,0.28992644202402623
COSMOS,Lichtenburgpotato,-26.02517,26.5704,2014,2016,-26.15579,26.701244,-26.125,26.625,-26.025,26.574997,571.9757690429688,"('COSMOS', 'Lichtenburgpotato')",1421.9658203125,0.4022429800156995,-26.25,26.75,16.937042,2.140000032,0.6347497750037381
COSMOS,LowerSaltCreek,38.12943,-109.7345,2012,2020,38.14157,-109.60581,38.125,-109.625,38.125,-109.725006,312.75067138671875,"('COSMOS', 'LowerSaltCreek')",1205.78076171875,0.2593760667908784,38.25,-109.75,12.932343,0.46799999999999997,0.2497902030336813
COSMOS,LuckyHills,31.7442,-110.0518,2012,2016,31.62478,-109.979256,31.625,-110.125,31.724998,-110.075005,325.7816772460937,"('COSMOS', 'LuckyHills')",1410.552001953125,0.2309604160605203,31.75,-110.25,16.550873,0.596,0.2512822370865849
COSMOS,ManitouForestGround,39.1006,-105.1025,2009,2019,39.22136,-105.12448,39.125,-105.125,39.125,-105.12501,477.5255126953125,"('COSMOS', 'ManitouForestGround')",838.7001342773438,0.5693638204872434,39.25,-105.25,3.0550232,1.128000016,0.5940717751298334
COSMOS,ManitouForestTower,39.101,-105.102,2009,2019,39.22136,-105.12448,39.125,-105.125,39.125,-105.12501,477.5255126953125,"('COSMOS', 'ManitouForestTower')",838.7001342773438,0.5693638204872434,39.25,-105.25,3.0550232,1.128000016,0.5940717751298334
COSMOS,Mapungubwe,-22.1917,29.3926,2015,2015,-22.140102,29.315353,-22.125,29.375,-22.175,29.375,276.6103210449219,"('COSMOS', 'Mapungubwe')",1707.26904296875,0.1620191745314654,-22.25,29.25,23.327026,1.70400002,0.7932330307960969
COSMOS,MarshallColorado,39.9495,-105.1955,2009,2020,39.950367,-105.12448,39.875,-105.125,39.924995,-105.175,442.0957336425781,"('COSMOS', 'MarshallColorado')",909.2877807617188,0.4862000160963677,39.75,-105.25,6.2738647,1.0640000120000002,0.40195617109530085
COSMOS,Metolius,44.4523,-121.5574,2011,2020,44.501,-121.556015,44.375,-121.625,44.475,-121.575005,768.82177734375,"('COSMOS', 'Metolius')",901.9391479492188,0.8524098095662618,44.25,-121.75,6.439728,4.784000072,1.687187321212638
COSMOS,MineralBanks,-41.2597,147.7894,2013,2017,-41.431942,147.6971,-41.375,147.875,-41.274998,147.775,1128.125,"('COSMOS', 'MineralBanks')",840.446044921875,1.3422931868337444,-41.25,147.75,10.546356,6.044000164,2.4526959275215465
COSMOS,MorganMonroe,39.3232,-86.4131,2011,2013,39.22136,-86.452286,39.375,-86.375,39.324997,-86.425,1161.509765625,"('COSMOS', 'MorganMonroe')",944.75927734375,1.2294240379312893,39.25,-86.25,12.315582,6.528000048,2.521791156624364
COSMOS,MountLemmon,32.4418,-110.7822,2010,2012,32.28808,-110.72614,32.375,-110.875,32.424995,-110.775,427.6838684082031,"('COSMOS', 'MountLemmon')",1537.8155517578125,0.2781112909928213,32.25,-110.75,18.805573,2.744000032,1.1339702256736395
COSMOS,Mozark,38.7441,-92.2,2011,2020,38.859642,-92.05394,38.625,-92.125,38.725,-92.175,1106.905517578125,"('COSMOS', 'Mozark')",995.1358032226562,1.1123160416834694,38.75,-92.25,13.036407,6.324000116,2.4579717214222763
COSMOS,MpalaNorth,0.4856,36.8701,2013,2020,0.4236687,36.784233,0.375,36.875,0.47499847,36.875,515.9871826171875,"('COSMOS', 'MpalaNorth')",1465.7210693359375,0.3520364095270608,0.25,36.75,18.509125,1.2720000040000001,0.5423353015103324
COSMOS,NJMeadowlands,40.7691,-74.0853,2014,2019,40.6871,-74.12863,40.875,-74.125,40.774994,-74.075005,1219.2935791015625,"('COSMOS', 'NJMeadowlands')",909.7117309570312,1.340307635495528,40.75,-74.25,11.970642,,
COSMOS,NamadgiNP,-35.5984,148.8176,2014,2017,-35.680595,148.81743,-35.625,148.875,-35.574997,148.82501,868.663330078125,"('COSMOS', 'NamadgiNP')",1022.7501831054688,0.8493406742206822,-35.75,148.75,9.189789,5.78000006,3.0884319012308468
COSMOS,NebField3,41.1649,-96.4701,2011,2020,41.058483,-96.53527,41.125,-96.375,41.174995,-96.475006,767.9596557617188,"('COSMOS', 'NebField3')",1048.0926513671875,0.7327211528102516,41.25,-96.25,10.781708,4.020000076,0.7725689185909124
COSMOS,Norwin,-27.5736,151.3092,2011,2013,-27.417961,151.43153,-27.625,151.375,-27.575,151.32501,620.603515625,"('COSMOS', 'Norwin')",1488.5140380859375,0.416928224891333,-27.75,151.25,18.58554,1.2840000040000001,0.37332181042181006
COSMOS,P301,37.0678,-119.1944,2011,2020,37.07728,-119.31535,37.125,-119.125,37.074997,-119.175,985.141357421875,"('COSMOS', 'P301')",1134.21826171875,0.8685641826371499,37.25,-119.25,8.228729,2.90800004,1.3992146282616027
COSMOS,ParkFalls,45.9459,-90.2723,2011,2019,46.09634,-90.18672,45.875,-90.375,45.924995,-90.275,830.6289672851562,"('COSMOS', 'ParkFalls')",733.7950439453125,1.131963174375242,45.75,-90.25,5.3815613,6.168000104,1.7446110584231107
COSMOS,Pe-de-Gigante,-21.6176,-47.6325,2011,2020,-21.532677,-47.61411,-21.625,-47.625,-21.625,-47.625,1420.9114990234375,"('COSMOS', 'Pe-de-Gigante')",1367.1834716796875,1.0392983300754368,-21.75,-47.75,22.289154,6.832000048,4.951984522012112
COSMOS,Petzenkirchen,48.14115,15.17028,2013,2017,48.15719,15.124481,48.125,15.125,48.124992,15.175003,830.1768798828125,"('COSMOS', 'Petzenkirchen')",603.2312622070312,1.3762166052957194,48.25,15.25,8.93869,3.072000048,1.0608864807274485
COSMOS,RanchoNoTengo,31.7438,-110.0219,2010,2011,31.62478,-109.979256,31.625,-110.125,31.724998,-110.025,322.6802978515625,"('COSMOS', 'RanchoNoTengo')",1385.3087158203125,0.23293024447658,31.75,-110.25,16.550873,0.732000004,0.27090579381014157
COSMOS,ReynoldsCreek,43.1208,-116.7226,2011,2019,42.94761,-116.70125,43.125,-116.625,43.124992,-116.725006,464.03997802734375,"('COSMOS', 'ReynoldsCreek')",1023.582763671875,0.453348761328008,43.25,-116.75,10.666473,0.932000004,0.2967862944689031
COSMOS,Rietholzbach,47.3805,8.9934,2010,2020,47.32334,9.149378,47.375,8.875,47.374992,8.974991,1363.187744140625,"('COSMOS', 'Rietholzbach')",611.881591796875,2.2278619955495564,47.25,8.75,8.164093,5.984000096,2.1205608726625855
COSMOS,RobsonsCreek,-17.12,145.63,2010,2017,-17.049429,145.45644,-17.125,145.625,-17.125,145.625,1812.6417236328125,"('COSMOS', 'RobsonsCreek')",1388.528564453125,1.3054407161920545,-17.25,145.75,21.190125,6.736000004,4.145483676574338
COSMOS,RobsonsCreekDualTube,-17.12,145.63,2011,2017,-17.049429,145.45644,-17.125,145.625,-17.125,145.625,1812.6417236328125,"('COSMOS', 'RobsonsCreekDualTube')",1388.528564453125,1.3054407161920545,-17.25,145.75,21.190125,6.736000004,4.145483676574338
COSMOS,Rosemount,44.7143,-93.0898,2011,2017,44.89572,-93.17427,44.625,-93.125,44.725,-93.075005,872.2721557617188,"('COSMOS', 'Rosemount')",818.010986328125,1.06633305706218,44.75,-93.25,7.6848755,2.524000044,0.5969385782913179
COSMOS,SMAP-OK,36.0635,-97.217,2010,2019,36.027473,-97.28216,36.125,-97.125,36.074997,-97.225006,890.6675415039062,"('COSMOS', 'SMAP-OK')",1289.9727783203125,0.690454524678927,36.25,-97.25,15.714233,3.0560000400000003,1.0139202223759434
COSMOS,SanPedro,31.5615,-110.1404,2011,2014,31.62478,-109.979256,31.625,-110.125,31.574997,-110.12501,354.4959411621094,"('COSMOS', 'SanPedro')",1430.7216796875,0.2477742150657413,31.75,-110.25,16.550873,1.1560000080000001,0.3940245167631634
COSMOS,SantaFeWatershed-SF,35.683,-105.8225,2009,2010,35.680595,-105.87137,35.625,-105.875,35.674995,-105.825005,410.72747802734375,"('COSMOS', 'SantaFeWatershed-SF')",1188.7930908203125,0.3454995500890118,35.75,-105.75,5.9336853,1.744000004,1.084348390929124
COSMOS,SantaFeWatershed-SF1,35.6792,-105.8269,2009,2010,35.680595,-105.87137,35.625,-105.875,35.674995,-105.825005,410.72747802734375,"('COSMOS', 'SantaFeWatershed-SF1')",1188.7930908203125,0.3454995500890118,35.75,-105.75,5.9336853,1.6840000080000002,1.0754785348076483
COSMOS,SantaMariaUFSM,-29.7243,-53.76,2014,2014,-29.661814,-53.58921,-29.625,-53.875,-29.725,-53.775,1736.3673095703125,"('COSMOS', 'SantaMariaUFSM')",1086.4727783203125,1.5981691803219749,-29.75,-53.75,19.129486,3.5880000439999997,1.645721369009155
COSMOS,SantaRitaCriosote,31.9085,-110.8394,2010,2017,31.955841,-110.72614,31.875,-110.875,31.924995,-110.825005,365.4153747558594,"('COSMOS', 'SantaRitaCriosote')",1570.7266845703125,0.2326409669775377,31.75,-110.75,17.579865,0.556,0.27867028816594036
COSMOS,SantaRitaMesquite,31.82,-110.84,2013,2016,31.955841,-110.72614,31.875,-110.875,31.824997,-110.825005,500.6209716796875,"('COSMOS', 'SantaRitaMesquite')",1566.2169189453125,0.3196370602462938,31.75,-110.75,17.579865,0.988000004,0.4118891965737374
COSMOS,Saskatoon,52.1326,-106.6168,2013,2015,52.091694,-106.618256,49.875,-106.625,49.975,-106.62501,342.4230041503906,"('COSMOS', 'Saskatoon')",736.0281372070312,0.4652308612137654,52.25,-106.75,2.5576172,1.8360000239999998,0.4095676957609304
COSMOS,SavannahRiver,33.3828,-81.566,2011,2019,33.29207,-81.59751,33.375,-81.625,33.375,-81.575005,1238.7734375,"('COSMOS', 'SavannahRiver')",1207.0660400390625,1.026268154690121,33.25,-81.75,18.151947,5.752000096000001,2.330195487676822
COSMOS,SevilletaNewGrass,34.39995,-106.67425,2013,2015,34.30753,-106.618256,34.375,-106.625,34.375,-106.675,247.6644744873047,"('COSMOS', 'SevilletaNewGrass')",1333.7484130859375,0.1856905485752558,34.25,-106.75,14.573853,0.436,0.20131101651971217
COSMOS,ShaleHills,40.6646,-77.9067,2011,2020,40.6871,-77.86307,40.625,-77.875,40.674995,-77.925,1068.97314453125,"('COSMOS', 'ShaleHills')",794.4574584960938,1.345538559805095,40.75,-77.75,9.924042,6.404000068,2.143385920167839
COSMOS,SilverSword,19.765,-155.4234,2010,2019,19.72485,-155.53941,19.875,-155.375,19.774994,-155.425,839.9714965820312,"('COSMOS', 'SilverSword')",1271.623046875,0.6605507022275604,19.75,-155.25,16.327026,0.46,0.26361566501131717
COSMOS,Soaproot,37.031,-119.2564,2011,2019,37.07728,-119.31535,37.125,-119.375,37.024994,-119.27501,678.9339599609375,"('COSMOS', 'Soaproot')",1251.4461669921875,0.5425195089236116,37.25,-119.25,8.228729,3.056000052,1.7087470525066382
COSMOS,Sterling,38.9739,-77.4852,2010,2012,38.859642,-77.489624,38.875,-77.375,38.975,-77.475006,1074.7061767578125,"('COSMOS', 'Sterling')",946.6964111328124,1.1352173348495365,38.75,-77.25,13.952545,1.8240000280000002,0.7391452324415391
COSMOS,Temora,-34.4046,147.5326,2013,2017,-34.30753,147.6971,-34.375,147.625,-34.425,147.525,543.523681640625,"('COSMOS', 'Temora')",1289.5015869140625,0.4214990405256846,-34.25,147.75,16.258759,2.35600004,0.7028122272363772
COSMOS,TenderfootCreek,46.9514,-110.8871,2011,2019,46.911266,-110.72614,46.875,-110.875,46.975,-110.87501,563.8699340820312,"('COSMOS', 'TenderfootCreek')",798.4386596679688,0.7062157214638342,46.75,-110.75,2.486145,3.28800006,1.009853778815165
COSMOS,TonziRanch,38.4316,-120.9659,2011,2019,38.499725,-120.80913,38.375,-120.875,38.424995,-120.975006,496.31585693359375,"('COSMOS', 'TonziRanch')",1178.223876953125,0.4212407053038693,38.25,-120.75,15.416382,2.29200004,1.0175897622974899
COSMOS,Toulouse,43.3848,1.2922,2011,2017,43.332268,1.3070539,43.375,1.375,43.374992,1.2749939,721.035400390625,"('COSMOS', 'Toulouse')",832.6166381835938,0.8659872591107591,43.25,1.25,13.136383,1.976000036,0.8117716951275092
COSMOS,TowerRuin,38.11681,-109.71836,2012,2020,38.14157,-109.60581,38.125,-109.625,38.125,-109.725006,312.75067138671875,"('COSMOS', 'TowerRuin')",1205.78076171875,0.2593760667908784,38.25,-109.75,12.932343,0.376,0.22136813621161447
COSMOS,TrailValleyForest,68.7227,-133.4955,2013,2014,68.51881,-133.50623,49.875,-133.375,49.975,-133.475,,"('COSMOS', 'TrailValleyForest')",331.84991455078125,,68.75,-133.25,-8.340637,1.868000016,0.4832716468269564
COSMOS,TrailValleyMainMet,68.7455,-133.5,2013,2017,68.51881,-133.50623,49.875,-133.375,49.975,-133.475,,"('COSMOS', 'TrailValleyMainMet')",331.84991455078125,,68.75,-133.25,-8.340637,1.848000036,0.5321773036166957
COSMOS,TrailValleyUpperPlateau,68.6936,-133.6974,2014,2014,68.51881,-133.87967,49.875,-133.625,49.975,-133.675,,"('COSMOS', 'TrailValleyUpperPlateau')",322.91461181640625,,68.75,-133.75,-8.421051,2.104000032,0.5290572391223711
COSMOS,Tullochgorum,-41.6694,147.9117,2010,2019,-41.80753,148.07054,-41.625,147.875,-41.675,147.92499,586.793701171875,"('COSMOS', 'Tullochgorum')",861.949462890625,0.6807750644730488,-41.75,147.75,10.332092,3.8920000679999998,1.294339241926185
COSMOS,Tumbarumba,-35.656,148.152,2011,2017,-35.680595,148.07054,-35.625,148.125,-35.675,148.17499,966.007568359375,"('COSMOS', 'Tumbarumba')",1036.22607421875,0.9322363067226276,-35.75,148.25,10.674805,6.596000104,4.175377833610047
COSMOS,TwoStreams,-29.2058,30.6508,2015,2017,-29.33835,30.809128,-29.125,30.625,-29.225,30.675003,894.0894165039062,"('COSMOS', 'TwoStreams')",1118.6407470703125,0.7992641237551023,-29.25,30.75,17.193665,4.748000076,2.064195702272823
COSMOS,UMBS,45.5598,-84.7138,2011,2019,45.693314,-84.58506,45.625,-84.625,45.574997,-84.725006,791.2001342773438,"('COSMOS', 'UMBS')",772.9859008789062,1.0235634742855302,45.75,-84.75,6.4733276,6.424000128,2.02833369911052
COSMOS,UVA,37.9229,-78.2739,2011,2013,37.785137,-78.23651,37.875,-78.375,37.924995,-78.275,1087.219970703125,"('COSMOS', 'UVA')",994.5576171875,1.0931694171501738,37.75,-78.25,14.671539,6.396000064,2.659748088149846
COSMOS,VCNPCZO,35.8896,-106.5328,2010,2016,36.027473,-106.618256,35.875,-106.625,35.875,-106.525,521.3916015625,"('COSMOS', 'VCNPCZO')",1113.438720703125,0.4682714835291938,35.75,-106.75,8.878418,2.200000032,0.7552671800021824
COSMOS,Water4CropsBudrioIT,44.5711,11.5321,2014,2016,44.501,11.390041,44.625,11.625,44.574997,11.524994,703.1434326171875,"('COSMOS', 'Water4CropsBudrioIT')",884.3698120117188,0.7950785102192861,44.75,11.75,14.808685,2.8640000600000004,0.8861412530344853
COSMOS,WeanyCreek,-19.882,146.536,2010,2019,-20.024717,146.57677,-19.875,146.625,-19.875,146.525,638.7582397460938,"('COSMOS', 'WeanyCreek')",1503.6119384765625,0.4248158872649509,-19.75,146.75,23.127808,2.172000028,0.9276106332519645
COSMOS,WindRiver,45.8205,-121.9519,2011,2016,45.693314,-121.92946,45.875,-121.875,45.824997,-121.975006,2211.17333984375,"('COSMOS', 'WindRiver')",756.983154296875,2.921033747306572,45.75,-121.75,8.471497,5.94000008,2.258377068656569
COSMOS,Yanco,-35.005,146.2992,2011,2017,-34.991234,146.20332,-35.125,146.375,-35.025,146.275,435.09478759765625,"('COSMOS', 'Yanco')",1344.3687744140625,0.323642437907181,-35.25,146.25,16.541443,1.312000016,0.5439129103515556
COSMOS,YorkIrrigatedMaize,40.94822,-97.48745,2014,2020,41.058483,-97.6556,40.875,-97.375,40.924995,-97.475006,715.4900512695312,"('COSMOS', 'YorkIrrigatedMaize')",1075.0623779296875,0.6655335224802431,40.75,-97.25,10.946869,3.5560000680000003,0.6992943883511671
COSMOS,YorkIrrigatedSoybean,40.93379,-97.4587,2014,2020,41.058483,-97.28216,40.875,-97.375,40.924995,-97.475006,715.4900512695312,"('COSMOS', 'YorkIrrigatedSoybean')",1075.0623779296875,0.6655335224802431,40.75,-97.25,10.946869,3.892000056,0.7401988173209892
COSMOS,YorkRainfed,40.8899,-97.4586,2014,2020,41.058483,-97.28216,40.875,-97.375,40.874992,-97.475006,712.3683471679688,"('COSMOS', 'YorkRainfed')",1075.0623779296875,0.6626297801805877,40.75,-97.25,10.946869,3.1640000400000003,0.6800967589151987
COSMOS-UK,AliceHolt,51.15355,-0.85823,2015,2023,51.18893,-0.93360996,49.875,-0.875,49.975,-0.875,,"('COSMOS-UK', 'AliceHolt')",608.1439208984375,,51.25,-0.75,10.34848,6.2680000719999995,2.2190384577145026
COSMOS-UK,Balruddery,56.4823,-3.11149,2014,2023,56.40517,-3.174274,49.875,-3.125,49.975,-3.125,,"('COSMOS-UK', 'Balruddery')",473.778564453125,,56.25,-3.25,9.189331,3.72800002,0.7837161754577683
COSMOS-UK,BickleyHall,53.02635,-2.70053,2015,2023,53.012913,-2.80083,49.875,-2.625,49.975,-2.725006,,"('COSMOS-UK', 'BickleyHall')",529.0276489257812,,53.25,-2.75,10.071411,5.948000072,2.1494948861420493
COSMOS-UK,BunnyPark,52.86073,-1.12685,2015,2023,53.012913,-1.3070539,49.875,-1.125,49.975,-1.125,,"('COSMOS-UK', 'BunnyPark')",589.4097900390625,,52.75,-1.25,9.869049,2.51200004,0.8881823307503057
COSMOS-UK,Cardington,52.1056,-0.42464,2015,2023,52.091694,-0.560166,49.875,-0.375,49.975,-0.42500305,,"('COSMOS-UK', 'Cardington')",612.2177124023438,,52.25,-0.25,10.338837,4.38000004,1.3134415190467283
COSMOS-UK,ChimneyMeadows,51.70802,-1.47877,2013,2023,51.63809,-1.3070539,49.875,-1.375,49.975,-1.4750061,,"('COSMOS-UK', 'ChimneyMeadows')",571.4230346679688,,51.75,-1.25,10.094696,3.964000012,1.1459620042789702
COSMOS-UK,ChobhamCommon,51.36795,-0.59748,2015,2023,51.18893,-0.560166,49.875,-0.625,49.975,-0.57499695,,"('COSMOS-UK', 'ChobhamCommon')",626.609130859375,,51.25,-0.75,10.34848,3.820000048,1.05333282484235
COSMOS-UK,Cochno,55.94142,-4.40354,2017,2020,55.90273,-4.2946057,49.875,-4.375,49.975,-4.425003,,"('COSMOS-UK', 'Cochno')",441.4086608886719,,55.75,-4.25,8.916107,6.0200001,1.9990649834500862
COSMOS-UK,CocklePark,55.21601,-1.69437,2014,2023,55.40666,-1.6804979,49.875,-1.625,49.975,-1.675003,,"('COSMOS-UK', 'CocklePark')",532.3750610351562,,55.25,-1.75,8.954193,5.500000096,1.537190922855505
COSMOS-UK,Crichton,55.04312,-3.58337,2014,2023,54.916687,-3.5477178,49.875,-3.625,49.975,-3.574997,,"('COSMOS-UK', 'Crichton')",480.2810363769531,,55.25,-3.75,7.950714,5.920000079999999,2.0130695760181077
COSMOS-UK,CwmGarw,51.95136,-4.74658,2016,2023,52.091694,-4.66805,49.875,-4.625,49.975,-4.725006,,"('COSMOS-UK', 'CwmGarw')",589.3627319335938,,51.75,-4.75,10.75708,6.116000064,1.7788112381858854
COSMOS-UK,EasterBush,55.86741,-3.20709,2014,2023,55.90273,-3.174274,49.875,-3.125,49.975,-3.225006,,"('COSMOS-UK', 'EasterBush')",472.42474365234375,,55.75,-3.25,7.941223,5.50400008,1.6169746761430357
COSMOS-UK,Elmsett,52.09465,0.99307,2016,2023,52.091694,0.93360996,49.875,0.875,49.975,0.97499084,,"('COSMOS-UK', 'Elmsett')",615.4622802734375,,52.25,0.75,10.089386,3.044000016,0.776891245061525
COSMOS-UK,Euston,52.33639,0.79592,2016,2023,52.549908,0.93360996,49.875,0.875,49.975,0.7749939,,"('COSMOS-UK', 'Euston')",600.9527587890625,,52.25,0.75,10.089386,3.23200006,0.9004763432978278
COSMOS-UK,Fincham,52.61777,0.51073,2017,2023,52.549908,0.560166,49.875,0.625,49.975,0.5249939,,"('COSMOS-UK', 'Fincham')",609.3179931640625,,52.75,0.75,10.142303,2.6480000360000004,0.8131328530166481
COSMOS-UK,Fivemiletown,54.2985,-7.29186,2018,2023,54.43256,-7.282158,49.875,-7.375,49.975,-7.275009,,"('COSMOS-UK', 'Fivemiletown')",461.56976318359375,,54.25,-7.25,9.366669,6.300000092,2.0184415848394583
COSMOS-UK,GisburnForest,54.02381,-2.38463,2014,2023,53.954033,-2.4273858,49.875,-2.375,49.975,-2.375,,"('COSMOS-UK', 'GisburnForest')",453.2604064941406,,54.25,-2.25,7.5215454,6.0440000959999995,1.7455037370038917
COSMOS-UK,Glensaugh,56.9144,-2.56216,2014,2023,56.91428,-2.4273858,49.875,-2.625,49.975,-2.574997,,"('COSMOS-UK', 'Glensaugh')",470.760986328125,,56.75,-2.75,8.324432,4.388000084000001,1.2983114657635417
COSMOS-UK,Glenwherry,54.83809,-6.0046,2016,2023,54.916687,-6.1618257,49.875,-6.125,49.975,-6.025009,,"('COSMOS-UK', 'Glenwherry')",500.5016784667969,,54.75,-6.25,9.47583,5.620000068,1.5327560820303503
COSMOS-UK,Hadlow,51.22856,0.32018,2016,2023,51.18893,0.186722,49.875,0.375,49.975,0.32499695,,"('COSMOS-UK', 'Hadlow')",627.2501831054688,,51.25,0.25,10.342834,3.648000044,1.139624375608601
COSMOS-UK,HartwoodHome,55.81026,-3.82896,2014,2023,55.90273,-3.921162,49.875,-3.875,49.975,-3.824997,,"('COSMOS-UK', 'HartwoodHome')",440.51458740234375,,55.75,-3.75,8.270996,5.808000096000001,1.82573537875186
COSMOS-UK,HenfaesFarm,53.22541,-4.01244,2015,2023,53.012913,-3.921162,49.875,-4.125,49.975,-4.025009,,"('COSMOS-UK', 'HenfaesFarm')",530.2606811523438,,53.25,-4.25,10.019653,6.020000096,1.779609379854478
COSMOS-UK,Heytesbury,51.20289,-2.0796,2017,2023,51.18893,-2.053942,49.875,-2.125,49.975,-2.074997,,"('COSMOS-UK', 'Heytesbury')",562.0943603515625,,51.25,-2.25,10.130463,5.176000104,1.61779048266166
COSMOS-UK,Hillsborough,54.447,-6.0684,2016,2023,54.43256,-6.1618257,49.875,-6.125,49.975,-6.074997,,"('COSMOS-UK', 'Hillsborough')",486.0383911132813,,54.25,-6.25,9.610748,6.024000096,2.0834841316022907
COSMOS-UK,HollinHill,54.11068,-0.95952,2014,2023,53.954033,-0.93360996,49.875,-0.875,49.975,-0.9750061,,"('COSMOS-UK', 'HollinHill')",539.4135131835938,,54.25,-0.75,9.135834,3.1040000479999996,0.918391979379798
COSMOS-UK,HolmeLacy,52.02088,-2.66211,2018,2023,52.091694,-2.80083,49.875,-2.625,49.975,-2.675003,,"('COSMOS-UK', 'HolmeLacy')",548.3814697265625,,52.25,-2.75,9.505951,3.5000000599999996,1.0236059061278537
COSMOS-UK,Loddington,52.61016,-0.82642,2016,2023,52.549908,-0.93360996,49.875,-0.875,49.975,-0.82499695,,"('COSMOS-UK', 'Loddington')",582.6900024414062,,52.75,-0.75,9.898651,2.99600004,0.9514881466540388
COSMOS-UK,LullingtonHeath,50.79372,0.18887,2014,2023,50.74406,0.186722,49.875,0.125,49.975,0.17500305,,"('COSMOS-UK', 'LullingtonHeath')",681.4390258789062,,50.75,0.25,11.194305,6.196000036,2.2681422757979934
COSMOS-UK,MoorHouse,54.65942,-2.4678,2014,2023,54.43256,-2.4273858,49.875,-2.375,49.975,-2.475006,,"('COSMOS-UK', 'MoorHouse')",411.6711120605469,,54.75,-2.25,7.5668945,4.372000052000001,1.1562945221650214
COSMOS-UK,MoretonMorrell,52.19941,-1.56308,2018,2023,52.091694,-1.6804979,49.875,-1.625,49.975,-1.574997,,"('COSMOS-UK', 'MoretonMorrell')",577.07275390625,,52.25,-1.75,10.000214,4.088000032,1.1445791454666059
COSMOS-UK,Morley,52.54815,1.03423,2014,2023,52.549908,0.93360996,49.875,1.125,49.975,1.0249939,,"('COSMOS-UK', 'Morley')",604.7227783203125,,52.75,1.25,10.178345,2.90800004,0.8729058461649539
COSMOS-UK,NorthWyke,50.77348,-3.90596,2014,2023,50.74406,-3.921162,49.875,-3.875,49.975,-3.925003,,"('COSMOS-UK', 'NorthWyke')",538.9451904296875,,50.75,-3.75,9.694,6.332000108,2.4377851218801188
COSMOS-UK,Plynlimon,52.45338,-3.76259,2014,2023,52.549908,-3.921162,49.875,-3.875,49.975,-3.7750092,,"('COSMOS-UK', 'Plynlimon')",475.4867248535156,,52.25,-3.75,8.60672,5.348000048,1.216829221640269
COSMOS-UK,PortonDown,51.11988,-1.68125,2014,2023,51.18893,-1.6804979,49.875,-1.625,49.975,-1.675003,,"('COSMOS-UK', 'PortonDown')",587.9658203125,,51.25,-1.75,10.085693,3.63200004,1.121286790604412
COSMOS-UK,Redhill,51.26287,0.42914,2016,2023,51.18893,0.560166,49.875,0.375,49.975,0.42500305,,"('COSMOS-UK', 'Redhill')",632.9846801757812,,51.25,0.25,10.342834,4.572000044,1.2741631103072262
COSMOS-UK,Redmere,52.44577,0.42104,2015,2018,52.549908,0.560166,49.875,0.375,49.975,0.42500305,,"('COSMOS-UK', 'Redmere')",609.0831298828125,,52.25,0.25,10.264862,3.184000052,0.9562395412727206
COSMOS-UK,Riseholme,53.26165,-0.52591,2016,2023,53.48089,-0.560166,49.875,-0.625,49.975,-0.52500916,,"('COSMOS-UK', 'Riseholme')",597.5682373046875,,53.25,-0.75,10.088501,,
COSMOS-UK,Rothamsted,51.81387,-0.37832,2014,2023,51.63809,-0.560166,49.875,-0.375,49.975,-0.375,,"('COSMOS-UK', 'Rothamsted')",595.6414794921875,,51.75,-0.25,10.224823,2.7200000440000003,0.852495820157515
COSMOS-UK,Sheepdrove,51.53032,-1.48187,2013,2023,51.63809,-1.3070539,49.875,-1.375,49.975,-1.4750061,,"('COSMOS-UK', 'Sheepdrove')",568.7039184570312,,51.75,-1.25,10.094696,3.8080000480000002,1.1272497443927234
COSMOS-UK,Sourhope,55.47988,-2.22999,2014,2023,55.40666,-2.053942,49.875,-2.125,49.975,-2.225006,,"('COSMOS-UK', 'Sourhope')",477.86859130859375,,55.25,-2.25,8.117645,6.10000012,1.667248184152407
COSMOS-UK,SpenFarm,53.86886,-1.31886,2016,2023,53.954033,-1.3070539,49.875,-1.375,49.975,-1.324997,,"('COSMOS-UK', 'SpenFarm')",553.4420166015625,,53.75,-1.25,9.944305,2.80000004,0.8226786173206919
COSMOS-UK,Stiperstones,52.58125,-2.94469,2014,2023,52.549908,-2.80083,49.875,-2.875,49.975,-2.925003,,"('COSMOS-UK', 'Stiperstones')",513.6581420898438,,52.75,-2.75,9.706329,5.8080000919999994,1.7079567287608526
COSMOS-UK,Stoughton,52.60164,-1.04701,2015,2023,52.549908,-0.93360996,49.875,-1.125,49.975,-1.0250092,,"('COSMOS-UK', 'Stoughton')",576.2630004882812,,52.75,-1.25,9.869049,2.70000002,0.9023822706275666
COSMOS-UK,Sydling,50.82837,-2.52789,2018,2023,50.74406,-2.4273858,49.875,-2.625,49.975,-2.5250092,,"('COSMOS-UK', 'Sydling')",580.1873168945312,,50.75,-2.75,10.817291,4.872000012,1.243936986475565
COSMOS-UK,TheLizard,50.03281,-5.19988,2014,2023,49.86661,-5.041494,49.875,-5.125,49.975,-5.175003,1045.9569091796875,"('COSMOS-UK', 'TheLizard')",684.091796875,1.5289715707127665,50.25,-5.25,11.453369,2.7640000400000004,0.9350017962582143
COSMOS-UK,Waddesdon,51.83948,-0.94842,2013,2023,51.63809,-0.93360996,49.875,-0.875,49.975,-0.92500305,,"('COSMOS-UK', 'Waddesdon')",573.4869995117188,,51.75,-0.75,10.13089,4.30800006,1.2532206004160467
COSMOS-UK,Wimpole,52.13219,-0.04441,2019,2023,52.091694,-0.186722,49.875,-0.125,49.975,-0.025009155,,"('COSMOS-UK', 'Wimpole')",614.6069946289062,,52.25,-0.25,10.338837,3.264000036,0.9423939323664673
COSMOS-UK,Writtle,51.734,0.4179,2017,2023,51.63809,0.560166,49.875,0.375,49.975,0.42500305,,"('COSMOS-UK', 'Writtle')",634.1563110351562,,51.75,0.25,10.388397,2.692000028,0.9844131214046079
COSMOS-UK,WythamWoods,51.77728,-1.33846,2013,2016,51.63809,-1.3070539,49.875,-1.375,49.975,-1.324997,,"('COSMOS-UK', 'WythamWoods')",584.7439575195312,,51.75,-1.25,10.094696,6.492000056,2.0673353721252323
CTP_SMTMN,L01,31.946,91.721,2010,2016,31.955841,91.6805,31.875,91.625,31.924995,91.725006,364.8240966796875,"('CTP_SMTMN', 'L01')",662.0342407226562,0.551065298800039,31.75,91.75,-2.863037,0.984000008,0.3185238946369379
CTP_SMTMN,L02,31.89,91.7,2010,2016,31.955841,91.6805,31.875,91.625,31.875,91.725006,364.0134887695313,"('CTP_SMTMN', 'L02')",662.0342407226562,0.549840878882919,31.75,91.75,-2.863037,1.9880000240000002,0.4742569537489139
CTP_SMTMN,L03,31.843,91.706,2010,2016,31.955841,91.6805,31.875,91.625,31.824997,91.725006,355.5977478027344,"('CTP_SMTMN', 'L03')",677.3489379882812,0.5249845801173848,31.75,91.75,-2.863037,0.9240000039999999,0.2935562785910611
CTP_SMTMN,L04-M02,31.806,91.75,2010,2016,31.955841,91.6805,31.875,91.875,31.824997,91.774994,380.7236633300781,"('CTP_SMTMN', 'L04-M02')",648.1099243164062,0.587436866873542,31.75,91.75,-2.863037,1.7160000199999998,0.41876286751850955
CTP_SMTMN,L05-M06,31.754,91.783,2010,2016,31.62478,91.6805,31.875,91.875,31.774994,91.774994,411.70794677734375,"('CTP_SMTMN', 'L05-M06')",648.1099243164062,0.6352440092806673,31.75,91.75,-2.863037,1.128000008,0.32008899743208
CTP_SMTMN,L06-M10,31.722,91.811,2011,2016,31.62478,91.6805,31.625,91.875,31.724998,91.82501,413.9807739257813,"('CTP_SMTMN', 'L06-M10')",699.3219604492188,0.5919745086510014,31.75,91.75,-2.863037,2.364000032,0.5248223737490287
CTP_SMTMN,L07-M13,31.678,91.842,2010,2016,31.62478,91.6805,31.625,91.875,31.674995,91.82501,413.85845947265625,"('CTP_SMTMN', 'L07-M13')",699.3219604492188,0.5917996043007269,31.75,91.75,-2.863037,1.3480000280000002,0.38648387660576333
CTP_SMTMN,L08-M14,31.662,91.795,2010,2016,31.62478,91.6805,31.625,91.875,31.674995,91.774994,411.2930603027344,"('CTP_SMTMN', 'L08-M14')",699.3219604492188,0.5881311950200089,31.75,91.75,-2.863037,1.7320000279999999,0.45534158531742847
CTP_SMTMN,L09-M16,31.639,91.755,2010,2016,31.62478,91.6805,31.625,91.875,31.625,91.774994,407.0501403808594,"('CTP_SMTMN', 'L09-M16')",736.48828125,0.5526905868617435,31.75,91.75,-2.863037,1.688000008,0.38871980941689804
CTP_SMTMN,L10-M17,31.614,91.74,2010,2016,31.62478,91.6805,31.625,91.625,31.625,91.725006,381.7618408203125,"('CTP_SMTMN', 'L10-M17')",733.8411254882812,0.5202241024122174,31.75,91.75,-2.863037,1.26000002,0.3650347630523023
CTP_SMTMN,L11-M21,31.587,91.793,2010,2016,31.62478,91.6805,31.625,91.875,31.574997,91.774994,409.0957336425781,"('CTP_SMTMN', 'L11-M21')",736.48828125,0.5554680828705693,31.75,91.75,-2.863037,1.5120000240000002,0.4416762962389987
CTP_SMTMN,L12-M22,31.574,91.913,2010,2016,31.62478,92.05394,31.625,91.875,31.574997,91.92499,431.34423828125,"('CTP_SMTMN', 'L12-M22')",735.3071899414062,0.5866177349845064,31.75,91.75,-2.863037,2.424000028,0.5347794304547684
CTP_SMTMN,L13,31.546,91.985,2010,2016,31.62478,92.05394,31.625,91.875,31.524994,91.975006,443.3259887695313,"('CTP_SMTMN', 'L13')",716.7412109375,0.6185300663675518,31.75,91.75,-2.863037,2.11600002,0.5209551326523699
CTP_SMTMN,L14,31.527,92.05,2010,2016,31.62478,92.05394,31.625,92.125,31.524994,92.024994,477.6581115722656,"('CTP_SMTMN', 'L14')",705.13037109375,0.6774039683347564,31.75,92.25,-3.9753113,1.2800000159999998,0.3733827512998074
CTP_SMTMN,L15,31.463,92.017,2010,2016,31.62478,92.05394,31.375,92.125,31.474998,92.024994,462.0425109863281,"('CTP_SMTMN', 'L15')",716.7412109375,0.6446434276912513,31.25,92.25,-3.8412476,2.2520000319999998,0.570252366686416
CTP_SMTMN,L16,31.41,91.971,2011,2016,31.294872,92.05394,31.375,91.875,31.424995,91.975006,437.3956604003906,"('CTP_SMTMN', 'L16')",738.159912109375,0.5925486513491139,31.25,91.75,-2.0071716,1.724000028,0.4832197123186447
CTP_SMTMN,L17,31.373,91.976,2012,2016,31.294872,92.05394,31.375,91.875,31.375,91.975006,422.0207214355469,"('CTP_SMTMN', 'L17')",738.159912109375,0.5717199139541121,31.25,91.75,-2.0071716,1.3480000079999999,0.29058035227995677
CTP_SMTMN,L18,31.332,92.041,2010,2016,31.294872,92.05394,31.375,92.125,31.324997,92.024994,432.0820617675781,"('CTP_SMTMN', 'L18')",739.5690307617188,0.5842349311497744,31.25,92.25,-3.8412476,1.120000012,0.33208045709108475
CTP_SMTMN,L19,31.274,92.109,2010,2016,31.294872,92.05394,31.375,92.125,31.274994,92.125,437.1330871582031,"('CTP_SMTMN', 'L19')",738.6485595703125,0.5918011772912584,31.25,92.25,-3.8412476,1.6880000240000002,0.4351305388730381
CTP_SMTMN,L20,31.232,92.164,2011,2016,31.294872,92.05394,31.125,92.125,31.224998,92.17499,429.4416809082031,"('CTP_SMTMN', 'L20')",672.0240478515625,0.6390272524935875,31.25,92.25,-3.8412476,1.476000012,0.40663411498247354
CTP_SMTMN,L21,31.172,92.197,2010,2016,31.294872,92.05394,31.125,92.125,31.174995,92.17499,407.7698974609375,"('CTP_SMTMN', 'L21')",672.0240478515625,0.6067787287740128,31.25,92.25,-3.8412476,1.756000032,0.4214108667106787
CTP_SMTMN,L22,31.128,92.25,2010,2016,30.966091,92.42738,31.125,92.375,31.125,92.274994,455.7326049804688,"('CTP_SMTMN', 'L22')",561.93017578125,0.8110128706771531,31.25,92.25,-3.8412476,2.9240000680000002,0.5727860729741292
CTP_SMTMN,L23,31.107,92.309,2010,2016,30.966091,92.42738,31.125,92.375,31.125,92.32501,424.9765625,"('CTP_SMTMN', 'L23')",561.93017578125,0.7562800163012358,31.25,92.25,-3.8412476,3.1960000280000003,0.5639492904926928
CTP_SMTMN,L24,31.074,92.369,2010,2016,30.966091,92.42738,31.125,92.375,31.074997,92.375,423.5143432617188,"('CTP_SMTMN', 'L24')",509.4488525390625,0.83131867144454,31.25,92.25,-3.8412476,1.9200000360000002,0.44314722109358473
CTP_SMTMN,L25,31.713,92.458,2010,2013,31.62478,92.42738,31.625,92.375,31.724998,92.475006,511.2630310058594,"('CTP_SMTMN', 'L25')",510.0640563964844,1.0023506353649885,31.75,92.25,-3.9753113,2.744000032,0.5468755149125503
CTP_SMTMN,L26,31.683,92.405,2010,2016,31.62478,92.42738,31.625,92.375,31.674995,92.42499,539.72119140625,"('CTP_SMTMN', 'L26')",558.2691040039062,0.9667760360288064,31.75,92.25,-3.9753113,3.11600006,0.636312467961481
CTP_SMTMN,L27,31.664,92.342,2010,2016,31.62478,92.42738,31.625,92.375,31.674995,92.32501,555.8952026367188,"('CTP_SMTMN', 'L27')",610.3224487304688,0.9108221462163744,31.75,92.25,-3.9753113,2.7520000319999998,0.6246211387208879
CTP_SMTMN,L28,31.64,92.331,2010,2014,31.62478,92.42738,31.625,92.375,31.625,92.32501,524.1557006835938,"('CTP_SMTMN', 'L28')",645.8363647460938,0.81159211418772,31.75,92.25,-3.9753113,2.3880000480000003,0.5610403608189318
CTP_SMTMN,L29,31.587,92.241,2011,2016,31.62478,92.42738,31.625,92.125,31.574997,92.225006,481.05419921875,"('CTP_SMTMN', 'L29')",684.0155639648438,0.703279610233364,31.75,92.25,-3.9753113,2.832000056,0.5927329606959563
CTP_SMTMN,L30,31.541,92.206,2010,2015,31.62478,92.05394,31.625,92.125,31.524994,92.225006,465.7044067382813,"('CTP_SMTMN', 'L30')",685.8992309570312,0.6789691338310536,31.75,92.25,-3.9753113,1.74400002,0.4047024988098308
CTP_SMTMN,L31,31.496,92.133,2011,2016,31.62478,92.05394,31.375,92.125,31.474998,92.125,476.9077453613281,"('CTP_SMTMN', 'L31')",705.13037109375,0.6763398158862189,31.25,92.25,-3.8412476,2.3840000359999998,0.5861100540233303
CTP_SMTMN,L32,31.369,91.899,2010,2016,31.294872,92.05394,31.375,91.875,31.375,91.875,387.4216003417969,"('CTP_SMTMN', 'L32')",749.7302856445312,0.5167479662486045,31.25,91.75,-2.0071716,1.008000008,0.3008845108479443
CTP_SMTMN,L33,31.301,91.848,2010,2016,31.294872,91.6805,31.375,91.875,31.324997,91.82501,362.67333984375,"('CTP_SMTMN', 'L33')",762.4646606445312,0.4756592122409618,31.25,91.75,-2.0071716,1.812000016,0.46424003479093273
CTP_SMTMN,L34,31.259,91.799,2010,2016,31.294872,91.6805,31.375,91.875,31.274994,91.774994,350.2921447753906,"('CTP_SMTMN', 'L34')",762.4646606445312,0.4594208267689148,31.25,91.75,-2.0071716,1.3960000160000001,0.3822007714655045
CTP_SMTMN,L35,31.175,91.76,2010,2016,31.294872,91.6805,31.125,91.875,31.174995,91.774994,350.4953308105469,"('CTP_SMTMN', 'L35')",716.035400390625,0.4894944169231551,31.25,91.75,-2.0071716,1.388000012,0.4013620228732813
CTP_SMTMN,L36,31.129,91.726,2010,2016,30.966091,91.6805,31.125,91.625,31.125,91.725006,328.5007629394531,"('CTP_SMTMN', 'L36')",684.2998046875,0.480053860441287,31.25,91.75,-2.0071716,1.38800002,0.37872358471602985
CTP_SMTMN,L37,31.089,91.688,2010,2016,30.966091,91.6805,31.125,91.625,31.074997,91.67499,366.0076293945313,"('CTP_SMTMN', 'L37')",684.2998046875,0.5348644364463562,31.25,91.75,-2.0071716,1.564000016,0.37186311317132525
CTP_SMTMN,L38,31.033,91.679,2010,2016,30.966091,91.6805,31.125,91.625,31.024994,91.67499,362.1366271972656,"('CTP_SMTMN', 'L38')",628.945068359375,0.5757841907273581,31.25,91.75,-2.0071716,1.0080000040000001,0.3084021283934327
CTP_SMTMN,M01,31.782,91.73,2011,2016,31.62478,91.6805,31.875,91.625,31.774994,91.725006,381.3201293945313,"('CTP_SMTMN', 'M01')",677.3489379882812,0.5629596623079499,31.75,91.75,-2.863037,1.132000004,0.3382896930027364
CTP_SMTMN,M03,31.816,91.796,2011,2016,31.955841,91.6805,31.875,91.875,31.824997,91.774994,380.7236633300781,"('CTP_SMTMN', 'M03')",648.1099243164062,0.587436866873542,31.75,91.75,-2.863037,2.304000032,0.5176074769334617
CTP_SMTMN,M04,31.808,91.846,2011,2016,31.955841,91.6805,31.875,91.875,31.824997,91.82501,382.0549621582031,"('CTP_SMTMN', 'M04')",648.1099243164062,0.5894909919195813,31.75,91.75,-2.863037,2.284000016,0.5039567745561907
CTP_SMTMN,M05,31.743,91.725,2011,2016,31.62478,91.6805,31.625,91.625,31.724998,91.725006,383.3302001953125,"('CTP_SMTMN', 'M05')",709.8695678710938,0.5400008924807466,31.75,91.75,-2.863037,1.7600000199999999,0.42691293747830145
CTP_SMTMN,M07-S01,31.732,91.766,2011,2016,31.62478,91.6805,31.625,91.875,31.724998,91.774994,407.9182739257813,"('CTP_SMTMN', 'M07-S01')",699.3219604492188,0.5833053972218313,31.75,91.75,-2.863037,1.744000024,0.45849030980277017
CTP_SMTMN,M08,31.736,91.87,2011,2016,31.62478,92.05394,31.625,91.875,31.724998,91.875,449.7828369140625,"('CTP_SMTMN', 'M08')",691.0399780273438,0.65087817089544,31.75,91.75,-2.863037,2.476000048,0.5243588435437654
CTP_SMTMN,M09,31.685,91.719,2011,2014,31.62478,91.6805,31.625,91.625,31.674995,91.725006,385.57080078125,"('CTP_SMTMN', 'M09')",709.8695678710938,0.5431572477991709,31.75,91.75,-2.863037,1.50400002,0.4108749798327894
CTP_SMTMN,M11-S09,31.683,91.771,2011,2016,31.62478,91.6805,31.625,91.875,31.674995,91.774994,411.2930603027344,"('CTP_SMTMN', 'M11-S09')",699.3219604492188,0.5881311950200089,31.75,91.75,-2.863037,1.88800004,0.4316707911964799
CTP_SMTMN,M12-S08,31.691,91.808,2011,2016,31.62478,91.6805,31.625,91.875,31.674995,91.82501,413.85845947265625,"('CTP_SMTMN', 'M12-S08')",699.3219604492188,0.5917996043007269,31.75,91.75,-2.863037,2.30000004,0.5373173105720077
CTP_SMTMN,M15,31.671,91.904,2011,2016,31.62478,92.05394,31.625,91.875,31.674995,91.92499,469.7511291503906,"('CTP_SMTMN', 'M15')",691.0399780273438,0.679774172387756,31.75,91.75,-2.863037,2.152000036,0.5297538973653526
CTP_SMTMN,M18,31.614,91.775,2011,2016,31.62478,91.6805,31.625,91.875,31.625,91.774994,407.0501403808594,"('CTP_SMTMN', 'M18')",736.48828125,0.5526905868617435,31.75,91.75,-2.863037,1.6000000120000002,0.4410140016860917
CTP_SMTMN,M19,31.618,91.841,2011,2016,31.62478,91.6805,31.625,91.875,31.625,91.82501,408.0660400390625,"('CTP_SMTMN', 'M19')",736.48828125,0.5540699701921598,31.75,91.75,-2.863037,1.8000000159999998,0.4306846614260194
CTP_SMTMN,M20,31.612,91.915,2011,2016,31.62478,92.05394,31.625,91.875,31.625,91.92499,449.7722473144531,"('CTP_SMTMN', 'M20')",735.3071899414062,0.6116793817156796,31.75,91.75,-2.863037,2.396000024,0.5490725146523698
CTP_SMTMN,S02,31.722,91.811,2011,2016,31.62478,91.6805,31.625,91.875,31.724998,91.82501,413.9807739257813,"('CTP_SMTMN', 'S02')",699.3219604492188,0.5919745086510014,31.75,91.75,-2.863037,2.364000032,0.5248223737490287
CTP_SMTMN,S03,31.716,91.802,2012,2016,31.62478,91.6805,31.625,91.875,31.724998,91.82501,413.9807739257813,"('CTP_SMTMN', 'S03')",699.3219604492188,0.5919745086510014,31.75,91.75,-2.863037,2.236000016,0.5090238803181582
CTP_SMTMN,S04,31.703,91.787,2012,2016,31.62478,91.6805,31.625,91.875,31.724998,91.774994,407.9182739257813,"('CTP_SMTMN', 'S04')",699.3219604492188,0.5833053972218313,31.75,91.75,-2.863037,1.876000032,0.4886290564588967
CTP_SMTMN,S05,31.698,91.774,2012,2016,31.62478,91.6805,31.625,91.875,31.674995,91.774994,411.2930603027344,"('CTP_SMTMN', 'S05')",699.3219604492188,0.5881311950200089,31.75,91.75,-2.863037,1.940000036,0.4717785846996791
CTP_SMTMN,S06,31.694,91.786,2012,2016,31.62478,91.6805,31.625,91.875,31.674995,91.774994,411.2930603027344,"('CTP_SMTMN', 'S06')",699.3219604492188,0.5881311950200089,31.75,91.75,-2.863037,1.36400002,0.3704676473451775
